{"type":"FeatureCollection","features":[{"type":"Feature","properties":{"nom":"Aiglun","code":"04001"},"geometry":{"type":"Point","coordinates":[6.1413,44.0632]}},{"type":"Feature","properties":{"nom":"Allemagne-en-Provence","code":"04004"},"geometry":{"type":"Point","coordinates":[6.0257,43.7921]}},{"type":"Feature","properties":{"nom":"Allons","code":"04005"},"geometry":{"type":"Point","coordinates":[6.5929,43.9769]}},{"type":"Feature","properties":{"nom":"Allos","code":"04006"},"geometry":{"type":"Point","coordinates":[6.6304,44.269]}},{"type":"Feature","properties":{"nom":"Angles","code":"04007"},"geometry":{"type":"Point","coordinates":[6.5531,43.9442]}},{"type":"Feature","properties":{"nom":"Annot","code":"04008"},"geometry":{"type":"Point","coordinates":[6.6631,43.9631]}},{"type":"Feature","properties":{"nom":"Archail","code":"04009"},"geometry":{"type":"Point","coordinates":[6.3309,44.115]}},{"type":"Feature","properties":{"nom":"Aubenas-les-Alpes","code":"04012"},"geometry":{"type":"Point","coordinates":[5.6757,43.9359]}},{"type":"Feature","properties":{"nom":"Aubignosc","code":"04013"},"geometry":{"type":"Point","coordinates":[5.9542,44.1211]}},{"type":"Feature","properties":{"nom":"Authon","code":"04016"},"geometry":{"type":"Point","coordinates":[6.1442,44.2475]}},{"type":"Feature","properties":{"nom":"Auzet","code":"04017"},"geometry":{"type":"Point","coordinates":[6.3169,44.3041]}},{"type":"Feature","properties":{"nom":"Banon","code":"04018"},"geometry":{"type":"Point","coordinates":[5.6496,44.0244]}},{"type":"Feature","properties":{"nom":"Barcelonnette","code":"04019"},"geometry":{"type":"Point","coordinates":[6.6463,44.3751]}},{"type":"Feature","properties":{"nom":"Barles","code":"04020"},"geometry":{"type":"Point","coordinates":[6.2532,44.2815]}},{"type":"Feature","properties":{"nom":"Barras","code":"04021"},"geometry":{"type":"Point","coordinates":[6.0987,44.0949]}},{"type":"Feature","properties":{"nom":"Barrême","code":"04022"},"geometry":{"type":"Point","coordinates":[6.386,43.9467]}},{"type":"Feature","properties":{"nom":"Bayons","code":"04023"},"geometry":{"type":"Point","coordinates":[6.1832,44.3233]}},{"type":"Feature","properties":{"nom":"Beaujeu","code":"04024"},"geometry":{"type":"Point","coordinates":[6.3714,44.2144]}},{"type":"Feature","properties":{"nom":"Beauvezer","code":"04025"},"geometry":{"type":"Point","coordinates":[6.6051,44.1454]}},{"type":"Feature","properties":{"nom":"Bellaffaire","code":"04026"},"geometry":{"type":"Point","coordinates":[6.1947,44.4074]}},{"type":"Feature","properties":{"nom":"Bevons","code":"04027"},"geometry":{"type":"Point","coordinates":[5.8772,44.1753]}},{"type":"Feature","properties":{"nom":"Beynes","code":"04028"},"geometry":{"type":"Point","coordinates":[6.2422,43.9802]}},{"type":"Feature","properties":{"nom":"Blieux","code":"04030"},"geometry":{"type":"Point","coordinates":[6.3671,43.8772]}},{"type":"Feature","properties":{"nom":"Bras-d'Asse","code":"04031"},"geometry":{"type":"Point","coordinates":[6.1278,43.9284]}},{"type":"Feature","properties":{"nom":"Braux","code":"04032"},"geometry":{"type":"Point","coordinates":[6.6982,43.9902]}},{"type":"Feature","properties":{"nom":"Ubaye-Serre-Ponçon","code":"04033"},"geometry":{"type":"Point","coordinates":[6.319,44.4447]}},{"type":"Feature","properties":{"nom":"La Brillanne","code":"04034"},"geometry":{"type":"Point","coordinates":[5.8822,43.93]}},{"type":"Feature","properties":{"nom":"Brunet","code":"04035"},"geometry":{"type":"Point","coordinates":[6.0256,43.8854]}},{"type":"Feature","properties":{"nom":"Le Brusquet","code":"04036"},"geometry":{"type":"Point","coordinates":[6.3036,44.1725]}},{"type":"Feature","properties":{"nom":"Le Caire","code":"04037"},"geometry":{"type":"Point","coordinates":[6.0706,44.3776]}},{"type":"Feature","properties":{"nom":"Castellane","code":"04039"},"geometry":{"type":"Point","coordinates":[6.4871,43.8485]}},{"type":"Feature","properties":{"nom":"Le Castellard-Mélan","code":"04040"},"geometry":{"type":"Point","coordinates":[6.135,44.1995]}},{"type":"Feature","properties":{"nom":"Le Castellet","code":"04041"},"geometry":{"type":"Point","coordinates":[5.9798,43.9218]}},{"type":"Feature","properties":{"nom":"Castellet-lès-Sausses","code":"04042"},"geometry":{"type":"Point","coordinates":[6.7436,44.0442]}},{"type":"Feature","properties":{"nom":"Val-de-Chalvagne","code":"04043"},"geometry":{"type":"Point","coordinates":[6.7745,43.9036]}},{"type":"Feature","properties":{"nom":"Céreste-en-Luberon","code":"04045"},"geometry":{"type":"Point","coordinates":[5.5883,43.853]}},{"type":"Feature","properties":{"nom":"Le Chaffaut-Saint-Jurson","code":"04046"},"geometry":{"type":"Point","coordinates":[6.1459,44.025]}},{"type":"Feature","properties":{"nom":"Champtercier","code":"04047"},"geometry":{"type":"Point","coordinates":[6.145,44.0977]}},{"type":"Feature","properties":{"nom":"Château-Arnoux-Saint-Auban","code":"04049"},"geometry":{"type":"Point","coordinates":[5.9942,44.0801]}},{"type":"Feature","properties":{"nom":"Châteaufort","code":"04050"},"geometry":{"type":"Point","coordinates":[6.0263,44.2762]}},{"type":"Feature","properties":{"nom":"Châteauneuf-Miravail","code":"04051"},"geometry":{"type":"Point","coordinates":[5.7142,44.1521]}},{"type":"Feature","properties":{"nom":"Châteauneuf-Val-Saint-Donat","code":"04053"},"geometry":{"type":"Point","coordinates":[5.9289,44.0951]}},{"type":"Feature","properties":{"nom":"Châteauredon","code":"04054"},"geometry":{"type":"Point","coordinates":[6.2239,44.0264]}},{"type":"Feature","properties":{"nom":"Chaudon-Norante","code":"04055"},"geometry":{"type":"Point","coordinates":[6.3208,43.9884]}},{"type":"Feature","properties":{"nom":"Clamensane","code":"04057"},"geometry":{"type":"Point","coordinates":[6.0784,44.3301]}},{"type":"Feature","properties":{"nom":"Claret","code":"04058"},"geometry":{"type":"Point","coordinates":[5.9662,44.3728]}},{"type":"Feature","properties":{"nom":"Clumanc","code":"04059"},"geometry":{"type":"Point","coordinates":[6.3783,44.022]}},{"type":"Feature","properties":{"nom":"Colmars","code":"04061"},"geometry":{"type":"Point","coordinates":[6.6585,44.1602]}},{"type":"Feature","properties":{"nom":"La Condamine-Châtelard","code":"04062"},"geometry":{"type":"Point","coordinates":[6.7054,44.4678]}},{"type":"Feature","properties":{"nom":"Corbières-en-Provence","code":"04063"},"geometry":{"type":"Point","coordinates":[5.7481,43.7593]}},{"type":"Feature","properties":{"nom":"Cruis","code":"04065"},"geometry":{"type":"Point","coordinates":[5.8397,44.0845]}},{"type":"Feature","properties":{"nom":"Curbans","code":"04066"},"geometry":{"type":"Point","coordinates":[6.0189,44.4132]}},{"type":"Feature","properties":{"nom":"Curel","code":"04067"},"geometry":{"type":"Point","coordinates":[5.6717,44.1765]}},{"type":"Feature","properties":{"nom":"Dauphin","code":"04068"},"geometry":{"type":"Point","coordinates":[5.7765,43.8947]}},{"type":"Feature","properties":{"nom":"Demandolx","code":"04069"},"geometry":{"type":"Point","coordinates":[6.5768,43.8685]}},{"type":"Feature","properties":{"nom":"Digne-les-Bains","code":"04070"},"geometry":{"type":"Point","coordinates":[6.2495,44.0954]}},{"type":"Feature","properties":{"nom":"Draix","code":"04072"},"geometry":{"type":"Point","coordinates":[6.375,44.1331]}},{"type":"Feature","properties":{"nom":"Enchastrayes","code":"04073"},"geometry":{"type":"Point","coordinates":[6.7129,44.3684]}},{"type":"Feature","properties":{"nom":"Entrages","code":"04074"},"geometry":{"type":"Point","coordinates":[6.2732,44.0398]}},{"type":"Feature","properties":{"nom":"Entrepierres","code":"04075"},"geometry":{"type":"Point","coordinates":[6.0254,44.195]}},{"type":"Feature","properties":{"nom":"Entrevaux","code":"04076"},"geometry":{"type":"Point","coordinates":[6.8067,43.9522]}},{"type":"Feature","properties":{"nom":"Entrevennes","code":"04077"},"geometry":{"type":"Point","coordinates":[6.0366,43.9393]}},{"type":"Feature","properties":{"nom":"L'Escale","code":"04079"},"geometry":{"type":"Point","coordinates":[6.0363,44.0777]}},{"type":"Feature","properties":{"nom":"Esparron-de-Verdon","code":"04081"},"geometry":{"type":"Point","coordinates":[5.9948,43.74]}},{"type":"Feature","properties":{"nom":"Estoublon","code":"04084"},"geometry":{"type":"Point","coordinates":[6.2004,43.9487]}},{"type":"Feature","properties":{"nom":"Faucon-du-Caire","code":"04085"},"geometry":{"type":"Point","coordinates":[6.0998,44.3952]}},{"type":"Feature","properties":{"nom":"Faucon-de-Barcelonnette","code":"04086"},"geometry":{"type":"Point","coordinates":[6.684,44.4137]}},{"type":"Feature","properties":{"nom":"Fontienne","code":"04087"},"geometry":{"type":"Point","coordinates":[5.7897,44.0076]}},{"type":"Feature","properties":{"nom":"Forcalquier","code":"04088"},"geometry":{"type":"Point","coordinates":[5.7842,43.9582]}},{"type":"Feature","properties":{"nom":"Le Fugeret","code":"04090"},"geometry":{"type":"Point","coordinates":[6.6627,44.0183]}},{"type":"Feature","properties":{"nom":"Ganagobie","code":"04091"},"geometry":{"type":"Point","coordinates":[5.9113,44.0026]}},{"type":"Feature","properties":{"nom":"La Garde","code":"04092"},"geometry":{"type":"Point","coordinates":[6.5662,43.8256]}},{"type":"Feature","properties":{"nom":"Gigors","code":"04093"},"geometry":{"type":"Point","coordinates":[6.1422,44.4243]}},{"type":"Feature","properties":{"nom":"Gréoux-les-Bains","code":"04094"},"geometry":{"type":"Point","coordinates":[5.8597,43.7628]}},{"type":"Feature","properties":{"nom":"L'Hospitalet","code":"04095"},"geometry":{"type":"Point","coordinates":[5.7078,44.1068]}},{"type":"Feature","properties":{"nom":"Jausiers","code":"04096"},"geometry":{"type":"Point","coordinates":[6.7745,44.3795]}},{"type":"Feature","properties":{"nom":"La Javie","code":"04097"},"geometry":{"type":"Point","coordinates":[6.3183,44.197]}},{"type":"Feature","properties":{"nom":"Lambruisse","code":"04099"},"geometry":{"type":"Point","coordinates":[6.4538,44.0484]}},{"type":"Feature","properties":{"nom":"Lardiers","code":"04101"},"geometry":{"type":"Point","coordinates":[5.7228,44.0846]}},{"type":"Feature","properties":{"nom":"Le Lauzet-Ubaye","code":"04102"},"geometry":{"type":"Point","coordinates":[6.4052,44.4255]}},{"type":"Feature","properties":{"nom":"Limans","code":"04104"},"geometry":{"type":"Point","coordinates":[5.7188,43.986]}},{"type":"Feature","properties":{"nom":"Lurs","code":"04106"},"geometry":{"type":"Point","coordinates":[5.878,43.9674]}},{"type":"Feature","properties":{"nom":"Majastres","code":"04107"},"geometry":{"type":"Point","coordinates":[6.2773,43.8937]}},{"type":"Feature","properties":{"nom":"Malijai","code":"04108"},"geometry":{"type":"Point","coordinates":[6.052,44.0392]}},{"type":"Feature","properties":{"nom":"Mallefougasse-Augès","code":"04109"},"geometry":{"type":"Point","coordinates":[5.8998,44.0766]}},{"type":"Feature","properties":{"nom":"Mallemoisson","code":"04110"},"geometry":{"type":"Point","coordinates":[6.1201,44.0432]}},{"type":"Feature","properties":{"nom":"Mane","code":"04111"},"geometry":{"type":"Point","coordinates":[5.7419,43.9426]}},{"type":"Feature","properties":{"nom":"Manosque","code":"04112"},"geometry":{"type":"Point","coordinates":[5.7896,43.8293]}},{"type":"Feature","properties":{"nom":"Marcoux","code":"04113"},"geometry":{"type":"Point","coordinates":[6.2818,44.1287]}},{"type":"Feature","properties":{"nom":"Méailles","code":"04115"},"geometry":{"type":"Point","coordinates":[6.6475,44.0432]}},{"type":"Feature","properties":{"nom":"Les Mées","code":"04116"},"geometry":{"type":"Point","coordinates":[5.9679,43.9956]}},{"type":"Feature","properties":{"nom":"Melve","code":"04118"},"geometry":{"type":"Point","coordinates":[5.9895,44.3546]}},{"type":"Feature","properties":{"nom":"Val d'Oronaye","code":"04120"},"geometry":{"type":"Point","coordinates":[6.8559,44.43]}},{"type":"Feature","properties":{"nom":"Mézel","code":"04121"},"geometry":{"type":"Point","coordinates":[6.1799,43.9979]}},{"type":"Feature","properties":{"nom":"Mirabeau","code":"04122"},"geometry":{"type":"Point","coordinates":[6.0826,44.0608]}},{"type":"Feature","properties":{"nom":"Mison","code":"04123"},"geometry":{"type":"Point","coordinates":[5.8676,44.2629]}},{"type":"Feature","properties":{"nom":"Montagnac-Montpezat","code":"04124"},"geometry":{"type":"Point","coordinates":[6.0944,43.7631]}},{"type":"Feature","properties":{"nom":"Montclar","code":"04126"},"geometry":{"type":"Point","coordinates":[6.3428,44.4004]}},{"type":"Feature","properties":{"nom":"Montfort","code":"04127"},"geometry":{"type":"Point","coordinates":[5.9505,44.0551]}},{"type":"Feature","properties":{"nom":"Montfuron","code":"04128"},"geometry":{"type":"Point","coordinates":[5.6901,43.8289]}},{"type":"Feature","properties":{"nom":"Montjustin","code":"04129"},"geometry":{"type":"Point","coordinates":[5.6584,43.8436]}},{"type":"Feature","properties":{"nom":"Montlaux","code":"04130"},"geometry":{"type":"Point","coordinates":[5.8443,44.0405]}},{"type":"Feature","properties":{"nom":"Montsalier","code":"04132"},"geometry":{"type":"Point","coordinates":[5.5896,44.0232]}},{"type":"Feature","properties":{"nom":"Moriez","code":"04133"},"geometry":{"type":"Point","coordinates":[6.462,43.963]}},{"type":"Feature","properties":{"nom":"La Motte-du-Caire","code":"04134"},"geometry":{"type":"Point","coordinates":[6.0406,44.3412]}},{"type":"Feature","properties":{"nom":"Moustiers-Sainte-Marie","code":"04135"},"geometry":{"type":"Point","coordinates":[6.2289,43.837]}},{"type":"Feature","properties":{"nom":"La Mure-Argens","code":"04136"},"geometry":{"type":"Point","coordinates":[6.5295,44.0186]}},{"type":"Feature","properties":{"nom":"Nibles","code":"04137"},"geometry":{"type":"Point","coordinates":[6.0095,44.2882]}},{"type":"Feature","properties":{"nom":"Niozelles","code":"04138"},"geometry":{"type":"Point","coordinates":[5.8445,43.933]}},{"type":"Feature","properties":{"nom":"Noyers-sur-Jabron","code":"04139"},"geometry":{"type":"Point","coordinates":[5.8078,44.1644]}},{"type":"Feature","properties":{"nom":"Les Omergues","code":"04140"},"geometry":{"type":"Point","coordinates":[5.5933,44.1513]}},{"type":"Feature","properties":{"nom":"Ongles","code":"04141"},"geometry":{"type":"Point","coordinates":[5.7249,44.039]}},{"type":"Feature","properties":{"nom":"Oppedette","code":"04142"},"geometry":{"type":"Point","coordinates":[5.5906,43.9304]}},{"type":"Feature","properties":{"nom":"Oraison","code":"04143"},"geometry":{"type":"Point","coordinates":[5.9232,43.9116]}},{"type":"Feature","properties":{"nom":"La Palud-sur-Verdon","code":"04144"},"geometry":{"type":"Point","coordinates":[6.323,43.801]}},{"type":"Feature","properties":{"nom":"Peipin","code":"04145"},"geometry":{"type":"Point","coordinates":[5.9447,44.1407]}},{"type":"Feature","properties":{"nom":"Peyroules","code":"04148"},"geometry":{"type":"Point","coordinates":[6.6495,43.8168]}},{"type":"Feature","properties":{"nom":"Peyruis","code":"04149"},"geometry":{"type":"Point","coordinates":[5.9306,44.0351]}},{"type":"Feature","properties":{"nom":"Piégut","code":"04150"},"geometry":{"type":"Point","coordinates":[6.1321,44.4546]}},{"type":"Feature","properties":{"nom":"Pierrerue","code":"04151"},"geometry":{"type":"Point","coordinates":[5.8394,43.9645]}},{"type":"Feature","properties":{"nom":"Pierrevert","code":"04152"},"geometry":{"type":"Point","coordinates":[5.725,43.808]}},{"type":"Feature","properties":{"nom":"Pontis","code":"04154"},"geometry":{"type":"Point","coordinates":[6.3704,44.4984]}},{"type":"Feature","properties":{"nom":"Prads-Haute-Bléone","code":"04155"},"geometry":{"type":"Point","coordinates":[6.4598,44.2135]}},{"type":"Feature","properties":{"nom":"Puimichel","code":"04156"},"geometry":{"type":"Point","coordinates":[6.0245,43.9803]}},{"type":"Feature","properties":{"nom":"Puimoisson","code":"04157"},"geometry":{"type":"Point","coordinates":[6.1216,43.8687]}},{"type":"Feature","properties":{"nom":"Quinson","code":"04158"},"geometry":{"type":"Point","coordinates":[6.0236,43.7048]}},{"type":"Feature","properties":{"nom":"Redortiers","code":"04159"},"geometry":{"type":"Point","coordinates":[5.6111,44.0982]}},{"type":"Feature","properties":{"nom":"Reillanne","code":"04160"},"geometry":{"type":"Point","coordinates":[5.6565,43.8884]}},{"type":"Feature","properties":{"nom":"Méolans-Revel","code":"04161"},"geometry":{"type":"Point","coordinates":[6.4988,44.3688]}},{"type":"Feature","properties":{"nom":"Revest-des-Brousses","code":"04162"},"geometry":{"type":"Point","coordinates":[5.6742,43.9805]}},{"type":"Feature","properties":{"nom":"Revest-du-Bion","code":"04163"},"geometry":{"type":"Point","coordinates":[5.5439,44.1024]}},{"type":"Feature","properties":{"nom":"Revest-Saint-Martin","code":"04164"},"geometry":{"type":"Point","coordinates":[5.8258,44.0228]}},{"type":"Feature","properties":{"nom":"Riez","code":"04166"},"geometry":{"type":"Point","coordinates":[6.0849,43.8358]}},{"type":"Feature","properties":{"nom":"La Robine-sur-Galabre","code":"04167"},"geometry":{"type":"Point","coordinates":[6.2328,44.1883]}},{"type":"Feature","properties":{"nom":"La Rochegiron","code":"04169"},"geometry":{"type":"Point","coordinates":[5.6654,44.1061]}},{"type":"Feature","properties":{"nom":"La Rochette","code":"04170"},"geometry":{"type":"Point","coordinates":[6.875,43.9097]}},{"type":"Feature","properties":{"nom":"Rougon","code":"04171"},"geometry":{"type":"Point","coordinates":[6.3951,43.7866]}},{"type":"Feature","properties":{"nom":"Roumoules","code":"04172"},"geometry":{"type":"Point","coordinates":[6.1526,43.8196]}},{"type":"Feature","properties":{"nom":"Saint-André-les-Alpes","code":"04173"},"geometry":{"type":"Point","coordinates":[6.5043,43.9711]}},{"type":"Feature","properties":{"nom":"Saint-Benoît","code":"04174"},"geometry":{"type":"Point","coordinates":[6.7282,43.96]}},{"type":"Feature","properties":{"nom":"Sainte-Croix-à-Lauze","code":"04175"},"geometry":{"type":"Point","coordinates":[5.6152,43.9054]}},{"type":"Feature","properties":{"nom":"Sainte-Croix-du-Verdon","code":"04176"},"geometry":{"type":"Point","coordinates":[6.1502,43.762]}},{"type":"Feature","properties":{"nom":"Hautes-Duyes","code":"04177"},"geometry":{"type":"Point","coordinates":[6.1719,44.1969]}},{"type":"Feature","properties":{"nom":"Saint-Étienne-les-Orgues","code":"04178"},"geometry":{"type":"Point","coordinates":[5.7798,44.0648]}},{"type":"Feature","properties":{"nom":"Saint-Geniez","code":"04179"},"geometry":{"type":"Point","coordinates":[6.0526,44.2368]}},{"type":"Feature","properties":{"nom":"Saint-Jacques","code":"04180"},"geometry":{"type":"Point","coordinates":[6.369,43.9759]}},{"type":"Feature","properties":{"nom":"Saint-Jeannet","code":"04181"},"geometry":{"type":"Point","coordinates":[6.1119,43.9778]}},{"type":"Feature","properties":{"nom":"Saint-Julien-d'Asse","code":"04182"},"geometry":{"type":"Point","coordinates":[6.071,43.9386]}},{"type":"Feature","properties":{"nom":"Saint-Julien-du-Verdon","code":"04183"},"geometry":{"type":"Point","coordinates":[6.5472,43.9122]}},{"type":"Feature","properties":{"nom":"Saint-Jurs","code":"04184"},"geometry":{"type":"Point","coordinates":[6.1987,43.8972]}},{"type":"Feature","properties":{"nom":"Saint-Laurent-du-Verdon","code":"04186"},"geometry":{"type":"Point","coordinates":[6.0702,43.721]}},{"type":"Feature","properties":{"nom":"Saint-Lions","code":"04187"},"geometry":{"type":"Point","coordinates":[6.4045,43.978]}},{"type":"Feature","properties":{"nom":"Saint-Maime","code":"04188"},"geometry":{"type":"Point","coordinates":[5.7988,43.8981]}},{"type":"Feature","properties":{"nom":"Saint-Martin-de-Brômes","code":"04189"},"geometry":{"type":"Point","coordinates":[5.9622,43.782]}},{"type":"Feature","properties":{"nom":"Saint-Martin-les-Eaux","code":"04190"},"geometry":{"type":"Point","coordinates":[5.7429,43.8693]}},{"type":"Feature","properties":{"nom":"Saint-Martin-lès-Seyne","code":"04191"},"geometry":{"type":"Point","coordinates":[6.2527,44.3858]}},{"type":"Feature","properties":{"nom":"Saint-Michel-l'Observatoire","code":"04192"},"geometry":{"type":"Point","coordinates":[5.7276,43.9135]}},{"type":"Feature","properties":{"nom":"Saint-Paul-sur-Ubaye","code":"04193"},"geometry":{"type":"Point","coordinates":[6.8188,44.5647]}},{"type":"Feature","properties":{"nom":"Saint-Pierre","code":"04194"},"geometry":{"type":"Point","coordinates":[6.922,43.9114]}},{"type":"Feature","properties":{"nom":"Saint-Pons","code":"04195"},"geometry":{"type":"Point","coordinates":[6.6163,44.416]}},{"type":"Feature","properties":{"nom":"Sainte-Tulle","code":"04197"},"geometry":{"type":"Point","coordinates":[5.7662,43.7822]}},{"type":"Feature","properties":{"nom":"Saint-Vincent-sur-Jabron","code":"04199"},"geometry":{"type":"Point","coordinates":[5.7425,44.1674]}},{"type":"Feature","properties":{"nom":"Salignac","code":"04200"},"geometry":{"type":"Point","coordinates":[5.9889,44.1546]}},{"type":"Feature","properties":{"nom":"Saumane","code":"04201"},"geometry":{"type":"Point","coordinates":[5.6808,44.0829]}},{"type":"Feature","properties":{"nom":"Sausses","code":"04202"},"geometry":{"type":"Point","coordinates":[6.7861,44.013]}},{"type":"Feature","properties":{"nom":"Selonnet","code":"04203"},"geometry":{"type":"Point","coordinates":[6.299,44.3713]}},{"type":"Feature","properties":{"nom":"Senez","code":"04204"},"geometry":{"type":"Point","coordinates":[6.3645,43.9229]}},{"type":"Feature","properties":{"nom":"Seyne","code":"04205"},"geometry":{"type":"Point","coordinates":[6.3802,44.3435]}},{"type":"Feature","properties":{"nom":"Sigonce","code":"04206"},"geometry":{"type":"Point","coordinates":[5.8505,44.0087]}},{"type":"Feature","properties":{"nom":"Sigoyer","code":"04207"},"geometry":{"type":"Point","coordinates":[5.9648,44.3231]}},{"type":"Feature","properties":{"nom":"Simiane-la-Rotonde","code":"04208"},"geometry":{"type":"Point","coordinates":[5.5659,44.0047]}},{"type":"Feature","properties":{"nom":"Sisteron","code":"04209"},"geometry":{"type":"Point","coordinates":[5.9276,44.1993]}},{"type":"Feature","properties":{"nom":"Soleilhas","code":"04210"},"geometry":{"type":"Point","coordinates":[6.6521,43.8611]}},{"type":"Feature","properties":{"nom":"Sourribes","code":"04211"},"geometry":{"type":"Point","coordinates":[6.0433,44.1582]}},{"type":"Feature","properties":{"nom":"Tartonne","code":"04214"},"geometry":{"type":"Point","coordinates":[6.3798,44.0803]}},{"type":"Feature","properties":{"nom":"Thèze","code":"04216"},"geometry":{"type":"Point","coordinates":[5.9248,44.3303]}},{"type":"Feature","properties":{"nom":"Thoard","code":"04217"},"geometry":{"type":"Point","coordinates":[6.1258,44.1495]}},{"type":"Feature","properties":{"nom":"Thorame-Basse","code":"04218"},"geometry":{"type":"Point","coordinates":[6.4854,44.1019]}},{"type":"Feature","properties":{"nom":"Thorame-Haute","code":"04219"},"geometry":{"type":"Point","coordinates":[6.6152,44.083]}},{"type":"Feature","properties":{"nom":"Les Thuiles","code":"04220"},"geometry":{"type":"Point","coordinates":[6.5584,44.3917]}},{"type":"Feature","properties":{"nom":"Turriers","code":"04222"},"geometry":{"type":"Point","coordinates":[6.1596,44.3934]}},{"type":"Feature","properties":{"nom":"Ubraye","code":"04224"},"geometry":{"type":"Point","coordinates":[6.6862,43.9092]}},{"type":"Feature","properties":{"nom":"Uvernet-Fours","code":"04226"},"geometry":{"type":"Point","coordinates":[6.6708,44.3202]}},{"type":"Feature","properties":{"nom":"Vachères","code":"04227"},"geometry":{"type":"Point","coordinates":[5.6397,43.9489]}},{"type":"Feature","properties":{"nom":"Valavoire","code":"04228"},"geometry":{"type":"Point","coordinates":[6.0787,44.2793]}},{"type":"Feature","properties":{"nom":"Valbelle","code":"04229"},"geometry":{"type":"Point","coordinates":[5.8753,44.1398]}},{"type":"Feature","properties":{"nom":"Valensole","code":"04230"},"geometry":{"type":"Point","coordinates":[5.9392,43.8386]}},{"type":"Feature","properties":{"nom":"Valernes","code":"04231"},"geometry":{"type":"Point","coordinates":[5.9777,44.2561]}},{"type":"Feature","properties":{"nom":"Vaumeilh","code":"04233"},"geometry":{"type":"Point","coordinates":[5.9589,44.289]}},{"type":"Feature","properties":{"nom":"Venterol","code":"04234"},"geometry":{"type":"Point","coordinates":[6.0869,44.4399]}},{"type":"Feature","properties":{"nom":"Verdaches","code":"04235"},"geometry":{"type":"Point","coordinates":[6.3432,44.2718]}},{"type":"Feature","properties":{"nom":"Vergons","code":"04236"},"geometry":{"type":"Point","coordinates":[6.602,43.9158]}},{"type":"Feature","properties":{"nom":"Le Vernet","code":"04237"},"geometry":{"type":"Point","coordinates":[6.4153,44.2762]}},{"type":"Feature","properties":{"nom":"Villars-Colmars","code":"04240"},"geometry":{"type":"Point","coordinates":[6.5713,44.1952]}},{"type":"Feature","properties":{"nom":"Villemus","code":"04241"},"geometry":{"type":"Point","coordinates":[5.7065,43.8627]}},{"type":"Feature","properties":{"nom":"Villeneuve","code":"04242"},"geometry":{"type":"Point","coordinates":[5.8509,43.8848]}},{"type":"Feature","properties":{"nom":"Volonne","code":"04244"},"geometry":{"type":"Point","coordinates":[6.0333,44.1232]}},{"type":"Feature","properties":{"nom":"Volx","code":"04245"},"geometry":{"type":"Point","coordinates":[5.8252,43.8677]}},{"type":"Feature","properties":{"nom":"Abriès-Ristolas","code":"05001"},"geometry":{"type":"Point","coordinates":[6.9717,44.7717]}},{"type":"Feature","properties":{"nom":"Aiguilles","code":"05003"},"geometry":{"type":"Point","coordinates":[6.8768,44.7826]}},{"type":"Feature","properties":{"nom":"Ancelle","code":"05004"},"geometry":{"type":"Point","coordinates":[6.2288,44.6195]}},{"type":"Feature","properties":{"nom":"L'Argentière-la-Bessée","code":"05006"},"geometry":{"type":"Point","coordinates":[6.4716,44.7835]}},{"type":"Feature","properties":{"nom":"Arvieux","code":"05007"},"geometry":{"type":"Point","coordinates":[6.7181,44.7623]}},{"type":"Feature","properties":{"nom":"Aspremont","code":"05008"},"geometry":{"type":"Point","coordinates":[5.7154,44.4934]}},{"type":"Feature","properties":{"nom":"Aspres-lès-Corps","code":"05009"},"geometry":{"type":"Point","coordinates":[6.003,44.8145]}},{"type":"Feature","properties":{"nom":"Aspres-sur-Buëch","code":"05010"},"geometry":{"type":"Point","coordinates":[5.7695,44.5565]}},{"type":"Feature","properties":{"nom":"Avançon","code":"05011"},"geometry":{"type":"Point","coordinates":[6.191,44.5359]}},{"type":"Feature","properties":{"nom":"Baratier","code":"05012"},"geometry":{"type":"Point","coordinates":[6.504,44.5051]}},{"type":"Feature","properties":{"nom":"Barcillonnette","code":"05013"},"geometry":{"type":"Point","coordinates":[5.8973,44.4333]}},{"type":"Feature","properties":{"nom":"Barret-sur-Méouge","code":"05014"},"geometry":{"type":"Point","coordinates":[5.7244,44.2591]}},{"type":"Feature","properties":{"nom":"La Bâtie-Montsaléon","code":"05016"},"geometry":{"type":"Point","coordinates":[5.7483,44.4565]}},{"type":"Feature","properties":{"nom":"La Bâtie-Neuve","code":"05017"},"geometry":{"type":"Point","coordinates":[6.2151,44.5817]}},{"type":"Feature","properties":{"nom":"La Bâtie-Vieille","code":"05018"},"geometry":{"type":"Point","coordinates":[6.1523,44.5519]}},{"type":"Feature","properties":{"nom":"La Beaume","code":"05019"},"geometry":{"type":"Point","coordinates":[5.6518,44.5477]}},{"type":"Feature","properties":{"nom":"Le Bersac","code":"05021"},"geometry":{"type":"Point","coordinates":[5.7537,44.4078]}},{"type":"Feature","properties":{"nom":"Bréziers","code":"05022"},"geometry":{"type":"Point","coordinates":[6.2184,44.4163]}},{"type":"Feature","properties":{"nom":"Briançon","code":"05023"},"geometry":{"type":"Point","coordinates":[6.6536,44.8995]}},{"type":"Feature","properties":{"nom":"Valdoule","code":"05024"},"geometry":{"type":"Point","coordinates":[5.5309,44.4627]}},{"type":"Feature","properties":{"nom":"Buissard","code":"05025"},"geometry":{"type":"Point","coordinates":[6.1457,44.6587]}},{"type":"Feature","properties":{"nom":"Ceillac","code":"05026"},"geometry":{"type":"Point","coordinates":[6.8072,44.6544]}},{"type":"Feature","properties":{"nom":"Cervières","code":"05027"},"geometry":{"type":"Point","coordinates":[6.7746,44.8586]}},{"type":"Feature","properties":{"nom":"Chabestan","code":"05028"},"geometry":{"type":"Point","coordinates":[5.7832,44.4793]}},{"type":"Feature","properties":{"nom":"Chabottes","code":"05029"},"geometry":{"type":"Point","coordinates":[6.1663,44.6485]}},{"type":"Feature","properties":{"nom":"Champcella","code":"05031"},"geometry":{"type":"Point","coordinates":[6.5236,44.7247]}},{"type":"Feature","properties":{"nom":"Champoléon","code":"05032"},"geometry":{"type":"Point","coordinates":[6.2741,44.7416]}},{"type":"Feature","properties":{"nom":"Chanousse","code":"05033"},"geometry":{"type":"Point","coordinates":[5.6592,44.3648]}},{"type":"Feature","properties":{"nom":"Châteauneuf-d'Oze","code":"05035"},"geometry":{"type":"Point","coordinates":[5.9028,44.503]}},{"type":"Feature","properties":{"nom":"Châteauroux-les-Alpes","code":"05036"},"geometry":{"type":"Point","coordinates":[6.4834,44.6424]}},{"type":"Feature","properties":{"nom":"Châteauvieux","code":"05037"},"geometry":{"type":"Point","coordinates":[6.0527,44.4838]}},{"type":"Feature","properties":{"nom":"Château-Ville-Vieille","code":"05038"},"geometry":{"type":"Point","coordinates":[6.811,44.7617]}},{"type":"Feature","properties":{"nom":"Aubessagne","code":"05039"},"geometry":{"type":"Point","coordinates":[6.0311,44.739]}},{"type":"Feature","properties":{"nom":"Chorges","code":"05040"},"geometry":{"type":"Point","coordinates":[6.287,44.5473]}},{"type":"Feature","properties":{"nom":"Crévoux","code":"05044"},"geometry":{"type":"Point","coordinates":[6.6191,44.5302]}},{"type":"Feature","properties":{"nom":"Crots","code":"05045"},"geometry":{"type":"Point","coordinates":[6.4571,44.4985]}},{"type":"Feature","properties":{"nom":"Embrun","code":"05046"},"geometry":{"type":"Point","coordinates":[6.475,44.5806]}},{"type":"Feature","properties":{"nom":"Éourres","code":"05047"},"geometry":{"type":"Point","coordinates":[5.7349,44.2113]}},{"type":"Feature","properties":{"nom":"L'Épine","code":"05048"},"geometry":{"type":"Point","coordinates":[5.6095,44.4319]}},{"type":"Feature","properties":{"nom":"Esparron","code":"05049"},"geometry":{"type":"Point","coordinates":[5.8875,44.4597]}},{"type":"Feature","properties":{"nom":"Espinasses","code":"05050"},"geometry":{"type":"Point","coordinates":[6.2371,44.4902]}},{"type":"Feature","properties":{"nom":"Étoile-Saint-Cyrice","code":"05051"},"geometry":{"type":"Point","coordinates":[5.6426,44.3217]}},{"type":"Feature","properties":{"nom":"Eygliers","code":"05052"},"geometry":{"type":"Point","coordinates":[6.6621,44.6962]}},{"type":"Feature","properties":{"nom":"Garde-Colombe","code":"05053"},"geometry":{"type":"Point","coordinates":[5.7865,44.3602]}},{"type":"Feature","properties":{"nom":"La Fare-en-Champsaur","code":"05054"},"geometry":{"type":"Point","coordinates":[6.06,44.6666]}},{"type":"Feature","properties":{"nom":"La Faurie","code":"05055"},"geometry":{"type":"Point","coordinates":[5.7378,44.5751]}},{"type":"Feature","properties":{"nom":"Forest-Saint-Julien","code":"05056"},"geometry":{"type":"Point","coordinates":[6.1433,44.6316]}},{"type":"Feature","properties":{"nom":"Fouillouse","code":"05057"},"geometry":{"type":"Point","coordinates":[5.9992,44.45]}},{"type":"Feature","properties":{"nom":"Freissinières","code":"05058"},"geometry":{"type":"Point","coordinates":[6.4595,44.7283]}},{"type":"Feature","properties":{"nom":"La Freissinouse","code":"05059"},"geometry":{"type":"Point","coordinates":[6.0054,44.5361]}},{"type":"Feature","properties":{"nom":"Furmeyer","code":"05060"},"geometry":{"type":"Point","coordinates":[5.8751,44.5379]}},{"type":"Feature","properties":{"nom":"Gap","code":"05061"},"geometry":{"type":"Point","coordinates":[6.0616,44.5797]}},{"type":"Feature","properties":{"nom":"Le Glaizil","code":"05062"},"geometry":{"type":"Point","coordinates":[5.9766,44.7483]}},{"type":"Feature","properties":{"nom":"La Grave","code":"05063"},"geometry":{"type":"Point","coordinates":[6.2886,45.061]}},{"type":"Feature","properties":{"nom":"La Chapelle-en-Valgaudémar","code":"05064"},"geometry":{"type":"Point","coordinates":[6.244,44.8069]}},{"type":"Feature","properties":{"nom":"Guillestre","code":"05065"},"geometry":{"type":"Point","coordinates":[6.6983,44.6596]}},{"type":"Feature","properties":{"nom":"La Haute-Beaume","code":"05066"},"geometry":{"type":"Point","coordinates":[5.6299,44.5707]}},{"type":"Feature","properties":{"nom":"Jarjayes","code":"05068"},"geometry":{"type":"Point","coordinates":[6.1132,44.5038]}},{"type":"Feature","properties":{"nom":"Laragne-Montéglin","code":"05070"},"geometry":{"type":"Point","coordinates":[5.8197,44.3372]}},{"type":"Feature","properties":{"nom":"Lardier-et-Valença","code":"05071"},"geometry":{"type":"Point","coordinates":[5.9721,44.4372]}},{"type":"Feature","properties":{"nom":"Laye","code":"05072"},"geometry":{"type":"Point","coordinates":[6.0692,44.6445]}},{"type":"Feature","properties":{"nom":"Lazer","code":"05073"},"geometry":{"type":"Point","coordinates":[5.851,44.3488]}},{"type":"Feature","properties":{"nom":"Lettret","code":"05074"},"geometry":{"type":"Point","coordinates":[6.0712,44.4833]}},{"type":"Feature","properties":{"nom":"Manteyer","code":"05075"},"geometry":{"type":"Point","coordinates":[5.9553,44.5317]}},{"type":"Feature","properties":{"nom":"Méreuil","code":"05076"},"geometry":{"type":"Point","coordinates":[5.7133,44.385]}},{"type":"Feature","properties":{"nom":"Molines-en-Queyras","code":"05077"},"geometry":{"type":"Point","coordinates":[6.8975,44.7123]}},{"type":"Feature","properties":{"nom":"Monêtier-Allemont","code":"05078"},"geometry":{"type":"Point","coordinates":[5.9317,44.3917]}},{"type":"Feature","properties":{"nom":"Le Monêtier-les-Bains","code":"05079"},"geometry":{"type":"Point","coordinates":[6.4709,44.9992]}},{"type":"Feature","properties":{"nom":"Montbrand","code":"05080"},"geometry":{"type":"Point","coordinates":[5.6699,44.5952]}},{"type":"Feature","properties":{"nom":"Montclus","code":"05081"},"geometry":{"type":"Point","coordinates":[5.6673,44.4119]}},{"type":"Feature","properties":{"nom":"Mont-Dauphin","code":"05082"},"geometry":{"type":"Point","coordinates":[6.625,44.6685]}},{"type":"Feature","properties":{"nom":"Montgardin","code":"05084"},"geometry":{"type":"Point","coordinates":[6.2345,44.5419]}},{"type":"Feature","properties":{"nom":"Montgenèvre","code":"05085"},"geometry":{"type":"Point","coordinates":[6.7216,44.9403]}},{"type":"Feature","properties":{"nom":"Montjay","code":"05086"},"geometry":{"type":"Point","coordinates":[5.6194,44.3668]}},{"type":"Feature","properties":{"nom":"Montmaur","code":"05087"},"geometry":{"type":"Point","coordinates":[5.8707,44.5774]}},{"type":"Feature","properties":{"nom":"Montrond","code":"05089"},"geometry":{"type":"Point","coordinates":[5.7453,44.3878]}},{"type":"Feature","properties":{"nom":"La Motte-en-Champsaur","code":"05090"},"geometry":{"type":"Point","coordinates":[6.1211,44.74]}},{"type":"Feature","properties":{"nom":"Moydans","code":"05091"},"geometry":{"type":"Point","coordinates":[5.5083,44.4084]}},{"type":"Feature","properties":{"nom":"Neffes","code":"05092"},"geometry":{"type":"Point","coordinates":[6.0238,44.499]}},{"type":"Feature","properties":{"nom":"Névache","code":"05093"},"geometry":{"type":"Point","coordinates":[6.616,45.0487]}},{"type":"Feature","properties":{"nom":"Nossage-et-Bénévent","code":"05094"},"geometry":{"type":"Point","coordinates":[5.7554,44.3103]}},{"type":"Feature","properties":{"nom":"Le Noyer","code":"05095"},"geometry":{"type":"Point","coordinates":[5.9995,44.7002]}},{"type":"Feature","properties":{"nom":"Orcières","code":"05096"},"geometry":{"type":"Point","coordinates":[6.3532,44.6849]}},{"type":"Feature","properties":{"nom":"Orpierre","code":"05097"},"geometry":{"type":"Point","coordinates":[5.7071,44.316]}},{"type":"Feature","properties":{"nom":"Les Orres","code":"05098"},"geometry":{"type":"Point","coordinates":[6.5774,44.4883]}},{"type":"Feature","properties":{"nom":"Oze","code":"05099"},"geometry":{"type":"Point","coordinates":[5.798,44.5057]}},{"type":"Feature","properties":{"nom":"Pelleautier","code":"05100"},"geometry":{"type":"Point","coordinates":[5.9977,44.5052]}},{"type":"Feature","properties":{"nom":"Vallouise-Pelvoux","code":"05101"},"geometry":{"type":"Point","coordinates":[6.4333,44.8646]}},{"type":"Feature","properties":{"nom":"La Piarre","code":"05102"},"geometry":{"type":"Point","coordinates":[5.6458,44.4809]}},{"type":"Feature","properties":{"nom":"Le Poët","code":"05103"},"geometry":{"type":"Point","coordinates":[5.9008,44.2756]}},{"type":"Feature","properties":{"nom":"Poligny","code":"05104"},"geometry":{"type":"Point","coordinates":[6.0335,44.6858]}},{"type":"Feature","properties":{"nom":"Prunières","code":"05106"},"geometry":{"type":"Point","coordinates":[6.3413,44.5456]}},{"type":"Feature","properties":{"nom":"Puy-Saint-André","code":"05107"},"geometry":{"type":"Point","coordinates":[6.5637,44.8868]}},{"type":"Feature","properties":{"nom":"Puy-Saint-Eusèbe","code":"05108"},"geometry":{"type":"Point","coordinates":[6.4129,44.5667]}},{"type":"Feature","properties":{"nom":"Puy-Saint-Pierre","code":"05109"},"geometry":{"type":"Point","coordinates":[6.6047,44.8974]}},{"type":"Feature","properties":{"nom":"Puy-Saint-Vincent","code":"05110"},"geometry":{"type":"Point","coordinates":[6.4617,44.8158]}},{"type":"Feature","properties":{"nom":"Puy-Sanières","code":"05111"},"geometry":{"type":"Point","coordinates":[6.4389,44.5596]}},{"type":"Feature","properties":{"nom":"Rabou","code":"05112"},"geometry":{"type":"Point","coordinates":[6.0067,44.6065]}},{"type":"Feature","properties":{"nom":"Rambaud","code":"05113"},"geometry":{"type":"Point","coordinates":[6.1292,44.5496]}},{"type":"Feature","properties":{"nom":"Réallon","code":"05114"},"geometry":{"type":"Point","coordinates":[6.3622,44.6163]}},{"type":"Feature","properties":{"nom":"Remollon","code":"05115"},"geometry":{"type":"Point","coordinates":[6.1567,44.4739]}},{"type":"Feature","properties":{"nom":"Réotier","code":"05116"},"geometry":{"type":"Point","coordinates":[6.5468,44.6788]}},{"type":"Feature","properties":{"nom":"Ribeyret","code":"05117"},"geometry":{"type":"Point","coordinates":[5.5552,44.4123]}},{"type":"Feature","properties":{"nom":"Val Buëch-Méouge","code":"05118"},"geometry":{"type":"Point","coordinates":[5.8338,44.2516]}},{"type":"Feature","properties":{"nom":"Risoul","code":"05119"},"geometry":{"type":"Point","coordinates":[6.6242,44.6202]}},{"type":"Feature","properties":{"nom":"Rochebrune","code":"05121"},"geometry":{"type":"Point","coordinates":[6.1962,44.4506]}},{"type":"Feature","properties":{"nom":"La Roche-de-Rame","code":"05122"},"geometry":{"type":"Point","coordinates":[6.6215,44.7557]}},{"type":"Feature","properties":{"nom":"La Roche-des-Arnauds","code":"05123"},"geometry":{"type":"Point","coordinates":[5.9596,44.59]}},{"type":"Feature","properties":{"nom":"La Rochette","code":"05124"},"geometry":{"type":"Point","coordinates":[6.1473,44.5945]}},{"type":"Feature","properties":{"nom":"Rosans","code":"05126"},"geometry":{"type":"Point","coordinates":[5.4581,44.4005]}},{"type":"Feature","properties":{"nom":"Rousset-Serre-Ponçon","code":"05127"},"geometry":{"type":"Point","coordinates":[6.2684,44.4856]}},{"type":"Feature","properties":{"nom":"Saint-André-d'Embrun","code":"05128"},"geometry":{"type":"Point","coordinates":[6.5792,44.5955]}},{"type":"Feature","properties":{"nom":"Saint-André-de-Rosans","code":"05129"},"geometry":{"type":"Point","coordinates":[5.5168,44.3658]}},{"type":"Feature","properties":{"nom":"Saint-Apollinaire","code":"05130"},"geometry":{"type":"Point","coordinates":[6.3559,44.5583]}},{"type":"Feature","properties":{"nom":"Saint-Auban-d'Oze","code":"05131"},"geometry":{"type":"Point","coordinates":[5.8458,44.4874]}},{"type":"Feature","properties":{"nom":"Saint-Bonnet-en-Champsaur","code":"05132"},"geometry":{"type":"Point","coordinates":[6.0988,44.692]}},{"type":"Feature","properties":{"nom":"Saint-Chaffrey","code":"05133"},"geometry":{"type":"Point","coordinates":[6.5989,44.9373]}},{"type":"Feature","properties":{"nom":"Saint-Clément-sur-Durance","code":"05134"},"geometry":{"type":"Point","coordinates":[6.554,44.6523]}},{"type":"Feature","properties":{"nom":"Sainte-Colombe","code":"05135"},"geometry":{"type":"Point","coordinates":[5.675,44.2887]}},{"type":"Feature","properties":{"nom":"Saint-Crépin","code":"05136"},"geometry":{"type":"Point","coordinates":[6.6291,44.7259]}},{"type":"Feature","properties":{"nom":"Dévoluy","code":"05139"},"geometry":{"type":"Point","coordinates":[5.8917,44.6847]}},{"type":"Feature","properties":{"nom":"Saint-Étienne-le-Laus","code":"05140"},"geometry":{"type":"Point","coordinates":[6.1616,44.5075]}},{"type":"Feature","properties":{"nom":"Saint-Firmin","code":"05142"},"geometry":{"type":"Point","coordinates":[6.0204,44.7962]}},{"type":"Feature","properties":{"nom":"Saint-Jacques-en-Valgodemard","code":"05144"},"geometry":{"type":"Point","coordinates":[6.0649,44.7773]}},{"type":"Feature","properties":{"nom":"Saint-Jean-Saint-Nicolas","code":"05145"},"geometry":{"type":"Point","coordinates":[6.2301,44.6757]}},{"type":"Feature","properties":{"nom":"Saint-Julien-en-Beauchêne","code":"05146"},"geometry":{"type":"Point","coordinates":[5.7214,44.6205]}},{"type":"Feature","properties":{"nom":"Saint-Julien-en-Champsaur","code":"05147"},"geometry":{"type":"Point","coordinates":[6.1289,44.6726]}},{"type":"Feature","properties":{"nom":"Saint-Laurent-du-Cros","code":"05148"},"geometry":{"type":"Point","coordinates":[6.1117,44.6371]}},{"type":"Feature","properties":{"nom":"Saint-Léger-les-Mélèzes","code":"05149"},"geometry":{"type":"Point","coordinates":[6.2144,44.6476]}},{"type":"Feature","properties":{"nom":"Saint-Martin-de-Queyrières","code":"05151"},"geometry":{"type":"Point","coordinates":[6.5843,44.8382]}},{"type":"Feature","properties":{"nom":"Saint-Maurice-en-Valgodemard","code":"05152"},"geometry":{"type":"Point","coordinates":[6.1159,44.8034]}},{"type":"Feature","properties":{"nom":"Saint-Michel-de-Chaillol","code":"05153"},"geometry":{"type":"Point","coordinates":[6.1683,44.6892]}},{"type":"Feature","properties":{"nom":"Saint-Pierre-d'Argençon","code":"05154"},"geometry":{"type":"Point","coordinates":[5.6868,44.5204]}},{"type":"Feature","properties":{"nom":"Saint-Pierre-Avez","code":"05155"},"geometry":{"type":"Point","coordinates":[5.7672,44.2488]}},{"type":"Feature","properties":{"nom":"Saint-Sauveur","code":"05156"},"geometry":{"type":"Point","coordinates":[6.5321,44.5312]}},{"type":"Feature","properties":{"nom":"Saint-Véran","code":"05157"},"geometry":{"type":"Point","coordinates":[6.8924,44.6843]}},{"type":"Feature","properties":{"nom":"Le Saix","code":"05158"},"geometry":{"type":"Point","coordinates":[5.8402,44.4655]}},{"type":"Feature","properties":{"nom":"Saléon","code":"05159"},"geometry":{"type":"Point","coordinates":[5.7769,44.3212]}},{"type":"Feature","properties":{"nom":"Salérans","code":"05160"},"geometry":{"type":"Point","coordinates":[5.7041,44.2459]}},{"type":"Feature","properties":{"nom":"La Salle-les-Alpes","code":"05161"},"geometry":{"type":"Point","coordinates":[6.5664,44.9571]}},{"type":"Feature","properties":{"nom":"La Saulce","code":"05162"},"geometry":{"type":"Point","coordinates":[6.0108,44.4318]}},{"type":"Feature","properties":{"nom":"Le Sauze-du-Lac","code":"05163"},"geometry":{"type":"Point","coordinates":[6.3209,44.4869]}},{"type":"Feature","properties":{"nom":"Savines-le-Lac","code":"05164"},"geometry":{"type":"Point","coordinates":[6.395,44.53]}},{"type":"Feature","properties":{"nom":"Savournon","code":"05165"},"geometry":{"type":"Point","coordinates":[5.7965,44.4234]}},{"type":"Feature","properties":{"nom":"Serres","code":"05166"},"geometry":{"type":"Point","coordinates":[5.7142,44.4224]}},{"type":"Feature","properties":{"nom":"Sigottier","code":"05167"},"geometry":{"type":"Point","coordinates":[5.6808,44.4601]}},{"type":"Feature","properties":{"nom":"Sigoyer","code":"05168"},"geometry":{"type":"Point","coordinates":[5.9716,44.4801]}},{"type":"Feature","properties":{"nom":"Sorbiers","code":"05169"},"geometry":{"type":"Point","coordinates":[5.57,44.3615]}},{"type":"Feature","properties":{"nom":"Tallard","code":"05170"},"geometry":{"type":"Point","coordinates":[6.0485,44.4599]}},{"type":"Feature","properties":{"nom":"Théus","code":"05171"},"geometry":{"type":"Point","coordinates":[6.1951,44.4863]}},{"type":"Feature","properties":{"nom":"Trescléoux","code":"05172"},"geometry":{"type":"Point","coordinates":[5.7249,44.3522]}},{"type":"Feature","properties":{"nom":"Upaix","code":"05173"},"geometry":{"type":"Point","coordinates":[5.8869,44.3208]}},{"type":"Feature","properties":{"nom":"Val-des-Prés","code":"05174"},"geometry":{"type":"Point","coordinates":[6.657,44.9399]}},{"type":"Feature","properties":{"nom":"Valserres","code":"05176"},"geometry":{"type":"Point","coordinates":[6.1354,44.4921]}},{"type":"Feature","properties":{"nom":"Vars","code":"05177"},"geometry":{"type":"Point","coordinates":[6.7211,44.5907]}},{"type":"Feature","properties":{"nom":"Ventavon","code":"05178"},"geometry":{"type":"Point","coordinates":[5.889,44.3819]}},{"type":"Feature","properties":{"nom":"Veynes","code":"05179"},"geometry":{"type":"Point","coordinates":[5.8227,44.5599]}},{"type":"Feature","properties":{"nom":"Les Vigneaux","code":"05180"},"geometry":{"type":"Point","coordinates":[6.5305,44.8246]}},{"type":"Feature","properties":{"nom":"Villar-d'Arêne","code":"05181"},"geometry":{"type":"Point","coordinates":[6.3642,45.0031]}},{"type":"Feature","properties":{"nom":"Villar-Loubière","code":"05182"},"geometry":{"type":"Point","coordinates":[6.1335,44.8364]}},{"type":"Feature","properties":{"nom":"Villar-Saint-Pancrace","code":"05183"},"geometry":{"type":"Point","coordinates":[6.6483,44.8378]}},{"type":"Feature","properties":{"nom":"Vitrolles","code":"05184"},"geometry":{"type":"Point","coordinates":[5.9485,44.4296]}},{"type":"Feature","properties":{"nom":"Aiglun","code":"06001"},"geometry":{"type":"Point","coordinates":[6.9348,43.8552]}},{"type":"Feature","properties":{"nom":"Amirat","code":"06002"},"geometry":{"type":"Point","coordinates":[6.8108,43.8973]}},{"type":"Feature","properties":{"nom":"Andon","code":"06003"},"geometry":{"type":"Point","coordinates":[6.8211,43.7755]}},{"type":"Feature","properties":{"nom":"Antibes","code":"06004"},"geometry":{"type":"Point","coordinates":[7.1048,43.5823]}},{"type":"Feature","properties":{"nom":"Ascros","code":"06005"},"geometry":{"type":"Point","coordinates":[7.0159,43.9171]}},{"type":"Feature","properties":{"nom":"Aspremont","code":"06006"},"geometry":{"type":"Point","coordinates":[7.2423,43.7772]}},{"type":"Feature","properties":{"nom":"Auribeau-sur-Siagne","code":"06007"},"geometry":{"type":"Point","coordinates":[6.9118,43.6105]}},{"type":"Feature","properties":{"nom":"Auvare","code":"06008"},"geometry":{"type":"Point","coordinates":[6.9133,44.0062]}},{"type":"Feature","properties":{"nom":"Bairols","code":"06009"},"geometry":{"type":"Point","coordinates":[7.1174,43.9856]}},{"type":"Feature","properties":{"nom":"Le Bar-sur-Loup","code":"06010"},"geometry":{"type":"Point","coordinates":[6.9674,43.6993]}},{"type":"Feature","properties":{"nom":"Beaulieu-sur-Mer","code":"06011"},"geometry":{"type":"Point","coordinates":[7.3324,43.7081]}},{"type":"Feature","properties":{"nom":"Beausoleil","code":"06012"},"geometry":{"type":"Point","coordinates":[7.4227,43.7471]}},{"type":"Feature","properties":{"nom":"Belvédère","code":"06013"},"geometry":{"type":"Point","coordinates":[7.3612,44.0615]}},{"type":"Feature","properties":{"nom":"Bendejun","code":"06014"},"geometry":{"type":"Point","coordinates":[7.2841,43.8309]}},{"type":"Feature","properties":{"nom":"Berre-les-Alpes","code":"06015"},"geometry":{"type":"Point","coordinates":[7.3306,43.8342]}},{"type":"Feature","properties":{"nom":"Beuil","code":"06016"},"geometry":{"type":"Point","coordinates":[6.9693,44.1176]}},{"type":"Feature","properties":{"nom":"Bézaudun-les-Alpes","code":"06017"},"geometry":{"type":"Point","coordinates":[7.0908,43.8026]}},{"type":"Feature","properties":{"nom":"Biot","code":"06018"},"geometry":{"type":"Point","coordinates":[7.0821,43.6273]}},{"type":"Feature","properties":{"nom":"Blausasc","code":"06019"},"geometry":{"type":"Point","coordinates":[7.357,43.7938]}},{"type":"Feature","properties":{"nom":"La Bollène-Vésubie","code":"06020"},"geometry":{"type":"Point","coordinates":[7.3749,43.9945]}},{"type":"Feature","properties":{"nom":"Bonson","code":"06021"},"geometry":{"type":"Point","coordinates":[7.1786,43.8613]}},{"type":"Feature","properties":{"nom":"Bouyon","code":"06022"},"geometry":{"type":"Point","coordinates":[7.125,43.8272]}},{"type":"Feature","properties":{"nom":"Breil-sur-Roya","code":"06023"},"geometry":{"type":"Point","coordinates":[7.4996,43.9379]}},{"type":"Feature","properties":{"nom":"Briançonnet","code":"06024"},"geometry":{"type":"Point","coordinates":[6.7325,43.8654]}},{"type":"Feature","properties":{"nom":"Le Broc","code":"06025"},"geometry":{"type":"Point","coordinates":[7.1621,43.8146]}},{"type":"Feature","properties":{"nom":"Cabris","code":"06026"},"geometry":{"type":"Point","coordinates":[6.8782,43.6602]}},{"type":"Feature","properties":{"nom":"Cagnes-sur-Mer","code":"06027"},"geometry":{"type":"Point","coordinates":[7.1502,43.6712]}},{"type":"Feature","properties":{"nom":"Caille","code":"06028"},"geometry":{"type":"Point","coordinates":[6.7544,43.7686]}},{"type":"Feature","properties":{"nom":"Cannes","code":"06029"},"geometry":{"type":"Point","coordinates":[7.0152,43.5454]}},{"type":"Feature","properties":{"nom":"Le Cannet","code":"06030"},"geometry":{"type":"Point","coordinates":[7.001,43.5745]}},{"type":"Feature","properties":{"nom":"Cantaron","code":"06031"},"geometry":{"type":"Point","coordinates":[7.3147,43.7694]}},{"type":"Feature","properties":{"nom":"Cap-d'Ail","code":"06032"},"geometry":{"type":"Point","coordinates":[7.4008,43.7256]}},{"type":"Feature","properties":{"nom":"Carros","code":"06033"},"geometry":{"type":"Point","coordinates":[7.1798,43.785]}},{"type":"Feature","properties":{"nom":"Castagniers","code":"06034"},"geometry":{"type":"Point","coordinates":[7.2298,43.79]}},{"type":"Feature","properties":{"nom":"Castellar","code":"06035"},"geometry":{"type":"Point","coordinates":[7.4989,43.8227]}},{"type":"Feature","properties":{"nom":"Castillon","code":"06036"},"geometry":{"type":"Point","coordinates":[7.4627,43.8371]}},{"type":"Feature","properties":{"nom":"Caussols","code":"06037"},"geometry":{"type":"Point","coordinates":[6.9071,43.7387]}},{"type":"Feature","properties":{"nom":"Châteauneuf-Grasse","code":"06038"},"geometry":{"type":"Point","coordinates":[6.9792,43.6626]}},{"type":"Feature","properties":{"nom":"Châteauneuf-Villevieille","code":"06039"},"geometry":{"type":"Point","coordinates":[7.2951,43.8007]}},{"type":"Feature","properties":{"nom":"Châteauneuf-d'Entraunes","code":"06040"},"geometry":{"type":"Point","coordinates":[6.8405,44.1584]}},{"type":"Feature","properties":{"nom":"Cipières","code":"06041"},"geometry":{"type":"Point","coordinates":[6.9229,43.7665]}},{"type":"Feature","properties":{"nom":"Clans","code":"06042"},"geometry":{"type":"Point","coordinates":[7.1827,44.003]}},{"type":"Feature","properties":{"nom":"Coaraze","code":"06043"},"geometry":{"type":"Point","coordinates":[7.3014,43.8693]}},{"type":"Feature","properties":{"nom":"La Colle-sur-Loup","code":"06044"},"geometry":{"type":"Point","coordinates":[7.0975,43.6869]}},{"type":"Feature","properties":{"nom":"Collongues","code":"06045"},"geometry":{"type":"Point","coordinates":[6.8642,43.8934]}},{"type":"Feature","properties":{"nom":"Colomars","code":"06046"},"geometry":{"type":"Point","coordinates":[7.2212,43.757]}},{"type":"Feature","properties":{"nom":"Conségudes","code":"06047"},"geometry":{"type":"Point","coordinates":[7.0395,43.8395]}},{"type":"Feature","properties":{"nom":"Contes","code":"06048"},"geometry":{"type":"Point","coordinates":[7.3263,43.8133]}},{"type":"Feature","properties":{"nom":"Courmes","code":"06049"},"geometry":{"type":"Point","coordinates":[7.0196,43.7514]}},{"type":"Feature","properties":{"nom":"Coursegoules","code":"06050"},"geometry":{"type":"Point","coordinates":[7.0384,43.7898]}},{"type":"Feature","properties":{"nom":"La Croix-sur-Roudoule","code":"06051"},"geometry":{"type":"Point","coordinates":[6.871,44.0032]}},{"type":"Feature","properties":{"nom":"Cuébris","code":"06052"},"geometry":{"type":"Point","coordinates":[6.9955,43.889]}},{"type":"Feature","properties":{"nom":"Daluis","code":"06053"},"geometry":{"type":"Point","coordinates":[6.8045,44.0426]}},{"type":"Feature","properties":{"nom":"Drap","code":"06054"},"geometry":{"type":"Point","coordinates":[7.3395,43.7587]}},{"type":"Feature","properties":{"nom":"Duranus","code":"06055"},"geometry":{"type":"Point","coordinates":[7.2796,43.8954]}},{"type":"Feature","properties":{"nom":"Entraunes","code":"06056"},"geometry":{"type":"Point","coordinates":[6.763,44.2215]}},{"type":"Feature","properties":{"nom":"L'Escarène","code":"06057"},"geometry":{"type":"Point","coordinates":[7.3665,43.8303]}},{"type":"Feature","properties":{"nom":"Escragnolles","code":"06058"},"geometry":{"type":"Point","coordinates":[6.7758,43.7236]}},{"type":"Feature","properties":{"nom":"Èze","code":"06059"},"geometry":{"type":"Point","coordinates":[7.3566,43.7299]}},{"type":"Feature","properties":{"nom":"Falicon","code":"06060"},"geometry":{"type":"Point","coordinates":[7.266,43.7533]}},{"type":"Feature","properties":{"nom":"Les Ferres","code":"06061"},"geometry":{"type":"Point","coordinates":[7.0966,43.8424]}},{"type":"Feature","properties":{"nom":"Fontan","code":"06062"},"geometry":{"type":"Point","coordinates":[7.5527,44.0213]}},{"type":"Feature","properties":{"nom":"Gars","code":"06063"},"geometry":{"type":"Point","coordinates":[6.8202,43.8612]}},{"type":"Feature","properties":{"nom":"Gattières","code":"06064"},"geometry":{"type":"Point","coordinates":[7.1675,43.769]}},{"type":"Feature","properties":{"nom":"La Gaude","code":"06065"},"geometry":{"type":"Point","coordinates":[7.1605,43.7177]}},{"type":"Feature","properties":{"nom":"Gilette","code":"06066"},"geometry":{"type":"Point","coordinates":[7.1602,43.8436]}},{"type":"Feature","properties":{"nom":"Gorbio","code":"06067"},"geometry":{"type":"Point","coordinates":[7.4476,43.787]}},{"type":"Feature","properties":{"nom":"Gourdon","code":"06068"},"geometry":{"type":"Point","coordinates":[6.9622,43.7266]}},{"type":"Feature","properties":{"nom":"Grasse","code":"06069"},"geometry":{"type":"Point","coordinates":[6.937,43.656]}},{"type":"Feature","properties":{"nom":"Gréolières","code":"06070"},"geometry":{"type":"Point","coordinates":[6.9296,43.8037]}},{"type":"Feature","properties":{"nom":"Guillaumes","code":"06071"},"geometry":{"type":"Point","coordinates":[6.8673,44.1007]}},{"type":"Feature","properties":{"nom":"Ilonse","code":"06072"},"geometry":{"type":"Point","coordinates":[7.0901,44.0319]}},{"type":"Feature","properties":{"nom":"Isola","code":"06073"},"geometry":{"type":"Point","coordinates":[7.0835,44.1903]}},{"type":"Feature","properties":{"nom":"Lantosque","code":"06074"},"geometry":{"type":"Point","coordinates":[7.3121,43.9787]}},{"type":"Feature","properties":{"nom":"Levens","code":"06075"},"geometry":{"type":"Point","coordinates":[7.2358,43.8501]}},{"type":"Feature","properties":{"nom":"Lieuche","code":"06076"},"geometry":{"type":"Point","coordinates":[7.0361,44.0001]}},{"type":"Feature","properties":{"nom":"Lucéram","code":"06077"},"geometry":{"type":"Point","coordinates":[7.3506,43.8997]}},{"type":"Feature","properties":{"nom":"Malaussène","code":"06078"},"geometry":{"type":"Point","coordinates":[7.1389,43.9146]}},{"type":"Feature","properties":{"nom":"Mandelieu-la-Napoule","code":"06079"},"geometry":{"type":"Point","coordinates":[6.918,43.5334]}},{"type":"Feature","properties":{"nom":"Marie","code":"06080"},"geometry":{"type":"Point","coordinates":[7.1668,44.0319]}},{"type":"Feature","properties":{"nom":"Le Mas","code":"06081"},"geometry":{"type":"Point","coordinates":[6.8572,43.8388]}},{"type":"Feature","properties":{"nom":"Massoins","code":"06082"},"geometry":{"type":"Point","coordinates":[7.1305,43.9552]}},{"type":"Feature","properties":{"nom":"Menton","code":"06083"},"geometry":{"type":"Point","coordinates":[7.498,43.7961]}},{"type":"Feature","properties":{"nom":"Mouans-Sartoux","code":"06084"},"geometry":{"type":"Point","coordinates":[6.9677,43.6192]}},{"type":"Feature","properties":{"nom":"Mougins","code":"06085"},"geometry":{"type":"Point","coordinates":[7.0046,43.5931]}},{"type":"Feature","properties":{"nom":"Moulinet","code":"06086"},"geometry":{"type":"Point","coordinates":[7.4128,43.9503]}},{"type":"Feature","properties":{"nom":"Les Mujouls","code":"06087"},"geometry":{"type":"Point","coordinates":[6.8649,43.8728]}},{"type":"Feature","properties":{"nom":"Nice","code":"06088"},"geometry":{"type":"Point","coordinates":[7.2528,43.7032]}},{"type":"Feature","properties":{"nom":"Opio","code":"06089"},"geometry":{"type":"Point","coordinates":[7.0094,43.6574]}},{"type":"Feature","properties":{"nom":"Pégomas","code":"06090"},"geometry":{"type":"Point","coordinates":[6.9213,43.5886]}},{"type":"Feature","properties":{"nom":"Peille","code":"06091"},"geometry":{"type":"Point","coordinates":[7.4088,43.8043]}},{"type":"Feature","properties":{"nom":"Peillon","code":"06092"},"geometry":{"type":"Point","coordinates":[7.3668,43.7727]}},{"type":"Feature","properties":{"nom":"La Penne","code":"06093"},"geometry":{"type":"Point","coordinates":[6.9361,43.9202]}},{"type":"Feature","properties":{"nom":"Péone","code":"06094"},"geometry":{"type":"Point","coordinates":[6.925,44.1333]}},{"type":"Feature","properties":{"nom":"Peymeinade","code":"06095"},"geometry":{"type":"Point","coordinates":[6.8807,43.6289]}},{"type":"Feature","properties":{"nom":"Pierlas","code":"06096"},"geometry":{"type":"Point","coordinates":[7.0177,44.035]}},{"type":"Feature","properties":{"nom":"Pierrefeu","code":"06097"},"geometry":{"type":"Point","coordinates":[7.0743,43.8883]}},{"type":"Feature","properties":{"nom":"Puget-Rostang","code":"06098"},"geometry":{"type":"Point","coordinates":[6.9333,44.0056]}},{"type":"Feature","properties":{"nom":"Puget-Théniers","code":"06099"},"geometry":{"type":"Point","coordinates":[6.9049,43.9498]}},{"type":"Feature","properties":{"nom":"Revest-les-Roches","code":"06100"},"geometry":{"type":"Point","coordinates":[7.1693,43.8823]}},{"type":"Feature","properties":{"nom":"Rigaud","code":"06101"},"geometry":{"type":"Point","coordinates":[6.976,43.9942]}},{"type":"Feature","properties":{"nom":"Rimplas","code":"06102"},"geometry":{"type":"Point","coordinates":[7.1449,44.0997]}},{"type":"Feature","properties":{"nom":"Roquebillière","code":"06103"},"geometry":{"type":"Point","coordinates":[7.2885,44.0282]}},{"type":"Feature","properties":{"nom":"Roquebrune-Cap-Martin","code":"06104"},"geometry":{"type":"Point","coordinates":[7.4576,43.7638]}},{"type":"Feature","properties":{"nom":"Roquefort-les-Pins","code":"06105"},"geometry":{"type":"Point","coordinates":[7.0565,43.6723]}},{"type":"Feature","properties":{"nom":"Roquestéron","code":"06106"},"geometry":{"type":"Point","coordinates":[7.0232,43.8696]}},{"type":"Feature","properties":{"nom":"La Roque-en-Provence","code":"06107"},"geometry":{"type":"Point","coordinates":[6.9916,43.8494]}},{"type":"Feature","properties":{"nom":"La Roquette-sur-Siagne","code":"06108"},"geometry":{"type":"Point","coordinates":[6.9475,43.5853]}},{"type":"Feature","properties":{"nom":"La Roquette-sur-Var","code":"06109"},"geometry":{"type":"Point","coordinates":[7.2072,43.8328]}},{"type":"Feature","properties":{"nom":"Roubion","code":"06110"},"geometry":{"type":"Point","coordinates":[7.0233,44.1121]}},{"type":"Feature","properties":{"nom":"Roure","code":"06111"},"geometry":{"type":"Point","coordinates":[7.0603,44.1139]}},{"type":"Feature","properties":{"nom":"Le Rouret","code":"06112"},"geometry":{"type":"Point","coordinates":[7.0081,43.6803]}},{"type":"Feature","properties":{"nom":"Sainte-Agnès","code":"06113"},"geometry":{"type":"Point","coordinates":[7.4605,43.8046]}},{"type":"Feature","properties":{"nom":"Saint-André-de-la-Roche","code":"06114"},"geometry":{"type":"Point","coordinates":[7.2875,43.7455]}},{"type":"Feature","properties":{"nom":"Saint-Antonin","code":"06115"},"geometry":{"type":"Point","coordinates":[6.9739,43.9085]}},{"type":"Feature","properties":{"nom":"Saint-Auban","code":"06116"},"geometry":{"type":"Point","coordinates":[6.7367,43.8319]}},{"type":"Feature","properties":{"nom":"Saint-Blaise","code":"06117"},"geometry":{"type":"Point","coordinates":[7.2283,43.8132]}},{"type":"Feature","properties":{"nom":"Saint-Cézaire-sur-Siagne","code":"06118"},"geometry":{"type":"Point","coordinates":[6.8049,43.6592]}},{"type":"Feature","properties":{"nom":"Saint-Dalmas-le-Selvage","code":"06119"},"geometry":{"type":"Point","coordinates":[6.8452,44.281]}},{"type":"Feature","properties":{"nom":"Saint-Étienne-de-Tinée","code":"06120"},"geometry":{"type":"Point","coordinates":[6.9252,44.2597]}},{"type":"Feature","properties":{"nom":"Saint-Jean-Cap-Ferrat","code":"06121"},"geometry":{"type":"Point","coordinates":[7.3349,43.6883]}},{"type":"Feature","properties":{"nom":"Saint-Jeannet","code":"06122"},"geometry":{"type":"Point","coordinates":[7.1477,43.7619]}},{"type":"Feature","properties":{"nom":"Saint-Laurent-du-Var","code":"06123"},"geometry":{"type":"Point","coordinates":[7.1822,43.6865]}},{"type":"Feature","properties":{"nom":"Saint-Léger","code":"06124"},"geometry":{"type":"Point","coordinates":[6.8189,44.0014]}},{"type":"Feature","properties":{"nom":"Saint-Martin-d'Entraunes","code":"06125"},"geometry":{"type":"Point","coordinates":[6.7492,44.1453]}},{"type":"Feature","properties":{"nom":"Saint-Martin-du-Var","code":"06126"},"geometry":{"type":"Point","coordinates":[7.2012,43.8168]}},{"type":"Feature","properties":{"nom":"Saint-Martin-Vésubie","code":"06127"},"geometry":{"type":"Point","coordinates":[7.307,44.0944]}},{"type":"Feature","properties":{"nom":"Saint-Paul-de-Vence","code":"06128"},"geometry":{"type":"Point","coordinates":[7.1196,43.6928]}},{"type":"Feature","properties":{"nom":"Saint-Sauveur-sur-Tinée","code":"06129"},"geometry":{"type":"Point","coordinates":[7.1226,44.1163]}},{"type":"Feature","properties":{"nom":"Saint-Vallier-de-Thiey","code":"06130"},"geometry":{"type":"Point","coordinates":[6.8516,43.6994]}},{"type":"Feature","properties":{"nom":"Sallagriffon","code":"06131"},"geometry":{"type":"Point","coordinates":[6.9117,43.8805]}},{"type":"Feature","properties":{"nom":"Saorge","code":"06132"},"geometry":{"type":"Point","coordinates":[7.5403,43.9935]}},{"type":"Feature","properties":{"nom":"Sauze","code":"06133"},"geometry":{"type":"Point","coordinates":[6.7987,44.0862]}},{"type":"Feature","properties":{"nom":"Séranon","code":"06134"},"geometry":{"type":"Point","coordinates":[6.6892,43.7655]}},{"type":"Feature","properties":{"nom":"Sigale","code":"06135"},"geometry":{"type":"Point","coordinates":[6.9652,43.8742]}},{"type":"Feature","properties":{"nom":"Sospel","code":"06136"},"geometry":{"type":"Point","coordinates":[7.4493,43.8872]}},{"type":"Feature","properties":{"nom":"Spéracèdes","code":"06137"},"geometry":{"type":"Point","coordinates":[6.8573,43.652]}},{"type":"Feature","properties":{"nom":"Théoule-sur-Mer","code":"06138"},"geometry":{"type":"Point","coordinates":[6.9303,43.499]}},{"type":"Feature","properties":{"nom":"Thiéry","code":"06139"},"geometry":{"type":"Point","coordinates":[7.0365,43.9759]}},{"type":"Feature","properties":{"nom":"Le Tignet","code":"06140"},"geometry":{"type":"Point","coordinates":[6.8538,43.6257]}},{"type":"Feature","properties":{"nom":"Toudon","code":"06141"},"geometry":{"type":"Point","coordinates":[7.1094,43.8857]}},{"type":"Feature","properties":{"nom":"Touët-de-l'Escarène","code":"06142"},"geometry":{"type":"Point","coordinates":[7.3799,43.8516]}},{"type":"Feature","properties":{"nom":"Touët-sur-Var","code":"06143"},"geometry":{"type":"Point","coordinates":[7.0091,43.9433]}},{"type":"Feature","properties":{"nom":"La Tour","code":"06144"},"geometry":{"type":"Point","coordinates":[7.196,43.9645]}},{"type":"Feature","properties":{"nom":"Tourette-du-Château","code":"06145"},"geometry":{"type":"Point","coordinates":[7.1365,43.8812]}},{"type":"Feature","properties":{"nom":"Tournefort","code":"06146"},"geometry":{"type":"Point","coordinates":[7.1596,43.942]}},{"type":"Feature","properties":{"nom":"Tourrette-Levens","code":"06147"},"geometry":{"type":"Point","coordinates":[7.275,43.7882]}},{"type":"Feature","properties":{"nom":"Tourrettes-sur-Loup","code":"06148"},"geometry":{"type":"Point","coordinates":[7.0353,43.718]}},{"type":"Feature","properties":{"nom":"La Trinité","code":"06149"},"geometry":{"type":"Point","coordinates":[7.3413,43.7415]}},{"type":"Feature","properties":{"nom":"La Turbie","code":"06150"},"geometry":{"type":"Point","coordinates":[7.3973,43.7462]}},{"type":"Feature","properties":{"nom":"Utelle","code":"06151"},"geometry":{"type":"Point","coordinates":[7.2458,43.9392]}},{"type":"Feature","properties":{"nom":"Valbonne","code":"06152"},"geometry":{"type":"Point","coordinates":[7.0291,43.6267]}},{"type":"Feature","properties":{"nom":"Valdeblore","code":"06153"},"geometry":{"type":"Point","coordinates":[7.1949,44.1152]}},{"type":"Feature","properties":{"nom":"Valderoure","code":"06154"},"geometry":{"type":"Point","coordinates":[6.7038,43.7943]}},{"type":"Feature","properties":{"nom":"Vallauris","code":"06155"},"geometry":{"type":"Point","coordinates":[7.0604,43.5787]}},{"type":"Feature","properties":{"nom":"Venanson","code":"06156"},"geometry":{"type":"Point","coordinates":[7.2386,44.0412]}},{"type":"Feature","properties":{"nom":"Vence","code":"06157"},"geometry":{"type":"Point","coordinates":[7.0995,43.7373]}},{"type":"Feature","properties":{"nom":"Villars-sur-Var","code":"06158"},"geometry":{"type":"Point","coordinates":[7.076,43.9564]}},{"type":"Feature","properties":{"nom":"Villefranche-sur-Mer","code":"06159"},"geometry":{"type":"Point","coordinates":[7.3243,43.7081]}},{"type":"Feature","properties":{"nom":"Villeneuve-d'Entraunes","code":"06160"},"geometry":{"type":"Point","coordinates":[6.774,44.1301]}},{"type":"Feature","properties":{"nom":"Villeneuve-Loubet","code":"06161"},"geometry":{"type":"Point","coordinates":[7.0984,43.647]}},{"type":"Feature","properties":{"nom":"La Brigue","code":"06162"},"geometry":{"type":"Point","coordinates":[7.6496,44.0897]}},{"type":"Feature","properties":{"nom":"Tende","code":"06163"},"geometry":{"type":"Point","coordinates":[7.5499,44.0971]}},{"type":"Feature","properties":{"nom":"Aix-en-Provence","code":"13001"},"geometry":{"type":"Point","coordinates":[5.3879,43.536]}},{"type":"Feature","properties":{"nom":"Allauch","code":"13002"},"geometry":{"type":"Point","coordinates":[5.5103,43.3522]}},{"type":"Feature","properties":{"nom":"Alleins","code":"13003"},"geometry":{"type":"Point","coordinates":[5.1558,43.7098]}},{"type":"Feature","properties":{"nom":"Arles","code":"13004"},"geometry":{"type":"Point","coordinates":[4.6513,43.5441]}},{"type":"Feature","properties":{"nom":"Aubagne","code":"13005"},"geometry":{"type":"Point","coordinates":[5.5643,43.2904]}},{"type":"Feature","properties":{"nom":"Aureille","code":"13006"},"geometry":{"type":"Point","coordinates":[4.942,43.6983]}},{"type":"Feature","properties":{"nom":"Auriol","code":"13007"},"geometry":{"type":"Point","coordinates":[5.6559,43.3594]}},{"type":"Feature","properties":{"nom":"Aurons","code":"13008"},"geometry":{"type":"Point","coordinates":[5.149,43.6722]}},{"type":"Feature","properties":{"nom":"La Barben","code":"13009"},"geometry":{"type":"Point","coordinates":[5.2123,43.6189]}},{"type":"Feature","properties":{"nom":"Barbentane","code":"13010"},"geometry":{"type":"Point","coordinates":[4.7454,43.891]}},{"type":"Feature","properties":{"nom":"Les Baux-de-Provence","code":"13011"},"geometry":{"type":"Point","coordinates":[4.805,43.7491]}},{"type":"Feature","properties":{"nom":"Beaurecueil","code":"13012"},"geometry":{"type":"Point","coordinates":[5.5481,43.5197]}},{"type":"Feature","properties":{"nom":"Belcodène","code":"13013"},"geometry":{"type":"Point","coordinates":[5.5846,43.4231]}},{"type":"Feature","properties":{"nom":"Berre-l'Étang","code":"13014"},"geometry":{"type":"Point","coordinates":[5.1596,43.4976]}},{"type":"Feature","properties":{"nom":"Bouc-Bel-Air","code":"13015"},"geometry":{"type":"Point","coordinates":[5.4118,43.4442]}},{"type":"Feature","properties":{"nom":"La Bouilladisse","code":"13016"},"geometry":{"type":"Point","coordinates":[5.626,43.3942]}},{"type":"Feature","properties":{"nom":"Boulbon","code":"13017"},"geometry":{"type":"Point","coordinates":[4.6962,43.8721]}},{"type":"Feature","properties":{"nom":"Cabannes","code":"13018"},"geometry":{"type":"Point","coordinates":[4.9592,43.8596]}},{"type":"Feature","properties":{"nom":"Cabriès","code":"13019"},"geometry":{"type":"Point","coordinates":[5.3467,43.453]}},{"type":"Feature","properties":{"nom":"Cadolive","code":"13020"},"geometry":{"type":"Point","coordinates":[5.5303,43.3943]}},{"type":"Feature","properties":{"nom":"Carry-le-Rouet","code":"13021"},"geometry":{"type":"Point","coordinates":[5.1587,43.3462]}},{"type":"Feature","properties":{"nom":"Cassis","code":"13022"},"geometry":{"type":"Point","coordinates":[5.5503,43.2185]}},{"type":"Feature","properties":{"nom":"Ceyreste","code":"13023"},"geometry":{"type":"Point","coordinates":[5.6354,43.2215]}},{"type":"Feature","properties":{"nom":"Charleval","code":"13024"},"geometry":{"type":"Point","coordinates":[5.2461,43.7205]}},{"type":"Feature","properties":{"nom":"Châteauneuf-le-Rouge","code":"13025"},"geometry":{"type":"Point","coordinates":[5.5691,43.4892]}},{"type":"Feature","properties":{"nom":"Châteauneuf-les-Martigues","code":"13026"},"geometry":{"type":"Point","coordinates":[5.1464,43.3904]}},{"type":"Feature","properties":{"nom":"Châteaurenard","code":"13027"},"geometry":{"type":"Point","coordinates":[4.8344,43.8829]}},{"type":"Feature","properties":{"nom":"La Ciotat","code":"13028"},"geometry":{"type":"Point","coordinates":[5.6175,43.1882]}},{"type":"Feature","properties":{"nom":"Cornillon-Confoux","code":"13029"},"geometry":{"type":"Point","coordinates":[5.0753,43.5762]}},{"type":"Feature","properties":{"nom":"Cuges-les-Pins","code":"13030"},"geometry":{"type":"Point","coordinates":[5.7099,43.2822]}},{"type":"Feature","properties":{"nom":"La Destrousse","code":"13031"},"geometry":{"type":"Point","coordinates":[5.5984,43.3788]}},{"type":"Feature","properties":{"nom":"Éguilles","code":"13032"},"geometry":{"type":"Point","coordinates":[5.3177,43.5662]}},{"type":"Feature","properties":{"nom":"Ensuès-la-Redonne","code":"13033"},"geometry":{"type":"Point","coordinates":[5.188,43.3554]}},{"type":"Feature","properties":{"nom":"Eygalières","code":"13034"},"geometry":{"type":"Point","coordinates":[4.9554,43.7638]}},{"type":"Feature","properties":{"nom":"Eyguières","code":"13035"},"geometry":{"type":"Point","coordinates":[5.0132,43.7005]}},{"type":"Feature","properties":{"nom":"Eyragues","code":"13036"},"geometry":{"type":"Point","coordinates":[4.8423,43.8414]}},{"type":"Feature","properties":{"nom":"La Fare-les-Oliviers","code":"13037"},"geometry":{"type":"Point","coordinates":[5.2051,43.5541]}},{"type":"Feature","properties":{"nom":"Fontvieille","code":"13038"},"geometry":{"type":"Point","coordinates":[4.7128,43.7278]}},{"type":"Feature","properties":{"nom":"Fos-sur-Mer","code":"13039"},"geometry":{"type":"Point","coordinates":[4.8979,43.4545]}},{"type":"Feature","properties":{"nom":"Fuveau","code":"13040"},"geometry":{"type":"Point","coordinates":[5.5537,43.4575]}},{"type":"Feature","properties":{"nom":"Gardanne","code":"13041"},"geometry":{"type":"Point","coordinates":[5.4857,43.4585]}},{"type":"Feature","properties":{"nom":"Gémenos","code":"13042"},"geometry":{"type":"Point","coordinates":[5.6518,43.2969]}},{"type":"Feature","properties":{"nom":"Gignac-la-Nerthe","code":"13043"},"geometry":{"type":"Point","coordinates":[5.2334,43.3873]}},{"type":"Feature","properties":{"nom":"Grans","code":"13044"},"geometry":{"type":"Point","coordinates":[5.0431,43.6172]}},{"type":"Feature","properties":{"nom":"Graveson","code":"13045"},"geometry":{"type":"Point","coordinates":[4.7686,43.8532]}},{"type":"Feature","properties":{"nom":"Gréasque","code":"13046"},"geometry":{"type":"Point","coordinates":[5.547,43.4252]}},{"type":"Feature","properties":{"nom":"Istres","code":"13047"},"geometry":{"type":"Point","coordinates":[4.9477,43.5455]}},{"type":"Feature","properties":{"nom":"Jouques","code":"13048"},"geometry":{"type":"Point","coordinates":[5.6605,43.6289]}},{"type":"Feature","properties":{"nom":"Lamanon","code":"13049"},"geometry":{"type":"Point","coordinates":[5.0898,43.7073]}},{"type":"Feature","properties":{"nom":"Lambesc","code":"13050"},"geometry":{"type":"Point","coordinates":[5.2493,43.6636]}},{"type":"Feature","properties":{"nom":"Lançon-Provence","code":"13051"},"geometry":{"type":"Point","coordinates":[5.1725,43.5728]}},{"type":"Feature","properties":{"nom":"Maillane","code":"13052"},"geometry":{"type":"Point","coordinates":[4.7832,43.8231]}},{"type":"Feature","properties":{"nom":"Mallemort","code":"13053"},"geometry":{"type":"Point","coordinates":[5.1849,43.728]}},{"type":"Feature","properties":{"nom":"Marignane","code":"13054"},"geometry":{"type":"Point","coordinates":[5.2178,43.4218]}},{"type":"Feature","properties":{"nom":"Marseille","code":"13055"},"geometry":{"type":"Point","coordinates":[5.3806,43.2803]}},{"type":"Feature","properties":{"nom":"Martigues","code":"13056"},"geometry":{"type":"Point","coordinates":[5.0451,43.3839]}},{"type":"Feature","properties":{"nom":"Mas-Blanc-des-Alpilles","code":"13057"},"geometry":{"type":"Point","coordinates":[4.7637,43.7887]}},{"type":"Feature","properties":{"nom":"Maussane-les-Alpilles","code":"13058"},"geometry":{"type":"Point","coordinates":[4.838,43.7158]}},{"type":"Feature","properties":{"nom":"Meyrargues","code":"13059"},"geometry":{"type":"Point","coordinates":[5.5321,43.6229]}},{"type":"Feature","properties":{"nom":"Meyreuil","code":"13060"},"geometry":{"type":"Point","coordinates":[5.5002,43.488]}},{"type":"Feature","properties":{"nom":"Saint-Pierre-de-Mézoargues","code":"13061"},"geometry":{"type":"Point","coordinates":[4.6578,43.8616]}},{"type":"Feature","properties":{"nom":"Mimet","code":"13062"},"geometry":{"type":"Point","coordinates":[5.5001,43.4123]}},{"type":"Feature","properties":{"nom":"Miramas","code":"13063"},"geometry":{"type":"Point","coordinates":[5.0148,43.5841]}},{"type":"Feature","properties":{"nom":"Mollégès","code":"13064"},"geometry":{"type":"Point","coordinates":[4.9466,43.8034]}},{"type":"Feature","properties":{"nom":"Mouriès","code":"13065"},"geometry":{"type":"Point","coordinates":[4.8781,43.7053]}},{"type":"Feature","properties":{"nom":"Noves","code":"13066"},"geometry":{"type":"Point","coordinates":[4.9018,43.86]}},{"type":"Feature","properties":{"nom":"Orgon","code":"13067"},"geometry":{"type":"Point","coordinates":[5.0294,43.7844]}},{"type":"Feature","properties":{"nom":"Paradou","code":"13068"},"geometry":{"type":"Point","coordinates":[4.7756,43.7071]}},{"type":"Feature","properties":{"nom":"Pélissanne","code":"13069"},"geometry":{"type":"Point","coordinates":[5.1628,43.63]}},{"type":"Feature","properties":{"nom":"La Penne-sur-Huveaune","code":"13070"},"geometry":{"type":"Point","coordinates":[5.5185,43.2778]}},{"type":"Feature","properties":{"nom":"Les Pennes-Mirabeau","code":"13071"},"geometry":{"type":"Point","coordinates":[5.3222,43.4005]}},{"type":"Feature","properties":{"nom":"Peynier","code":"13072"},"geometry":{"type":"Point","coordinates":[5.6204,43.4375]}},{"type":"Feature","properties":{"nom":"Peypin","code":"13073"},"geometry":{"type":"Point","coordinates":[5.57,43.3834]}},{"type":"Feature","properties":{"nom":"Peyrolles-en-Provence","code":"13074"},"geometry":{"type":"Point","coordinates":[5.5763,43.6262]}},{"type":"Feature","properties":{"nom":"Plan-de-Cuques","code":"13075"},"geometry":{"type":"Point","coordinates":[5.4639,43.3642]}},{"type":"Feature","properties":{"nom":"Plan-d'Orgon","code":"13076"},"geometry":{"type":"Point","coordinates":[5.0011,43.818]}},{"type":"Feature","properties":{"nom":"Port-de-Bouc","code":"13077"},"geometry":{"type":"Point","coordinates":[4.9993,43.4207]}},{"type":"Feature","properties":{"nom":"Port-Saint-Louis-du-Rhône","code":"13078"},"geometry":{"type":"Point","coordinates":[4.826,43.4066]}},{"type":"Feature","properties":{"nom":"Puyloubier","code":"13079"},"geometry":{"type":"Point","coordinates":[5.6718,43.5192]}},{"type":"Feature","properties":{"nom":"Le Puy-Sainte-Réparade","code":"13080"},"geometry":{"type":"Point","coordinates":[5.4401,43.6533]}},{"type":"Feature","properties":{"nom":"Rognac","code":"13081"},"geometry":{"type":"Point","coordinates":[5.233,43.4995]}},{"type":"Feature","properties":{"nom":"Rognes","code":"13082"},"geometry":{"type":"Point","coordinates":[5.3546,43.6672]}},{"type":"Feature","properties":{"nom":"Rognonas","code":"13083"},"geometry":{"type":"Point","coordinates":[4.7948,43.8992]}},{"type":"Feature","properties":{"nom":"La Roque-d'Anthéron","code":"13084"},"geometry":{"type":"Point","coordinates":[5.3165,43.7166]}},{"type":"Feature","properties":{"nom":"Roquefort-la-Bédoule","code":"13085"},"geometry":{"type":"Point","coordinates":[5.6297,43.2518]}},{"type":"Feature","properties":{"nom":"Roquevaire","code":"13086"},"geometry":{"type":"Point","coordinates":[5.598,43.3452]}},{"type":"Feature","properties":{"nom":"Rousset","code":"13087"},"geometry":{"type":"Point","coordinates":[5.6202,43.4869]}},{"type":"Feature","properties":{"nom":"Le Rove","code":"13088"},"geometry":{"type":"Point","coordinates":[5.2498,43.3622]}},{"type":"Feature","properties":{"nom":"Saint-Andiol","code":"13089"},"geometry":{"type":"Point","coordinates":[4.9498,43.8327]}},{"type":"Feature","properties":{"nom":"Saint-Antonin-sur-Bayon","code":"13090"},"geometry":{"type":"Point","coordinates":[5.5972,43.5191]}},{"type":"Feature","properties":{"nom":"Saint-Cannat","code":"13091"},"geometry":{"type":"Point","coordinates":[5.3108,43.6155]}},{"type":"Feature","properties":{"nom":"Saint-Chamas","code":"13092"},"geometry":{"type":"Point","coordinates":[5.072,43.5414]}},{"type":"Feature","properties":{"nom":"Saint-Estève-Janson","code":"13093"},"geometry":{"type":"Point","coordinates":[5.3891,43.6926]}},{"type":"Feature","properties":{"nom":"Saint-Étienne-du-Grès","code":"13094"},"geometry":{"type":"Point","coordinates":[4.7352,43.787]}},{"type":"Feature","properties":{"nom":"Saint-Marc-Jaumegarde","code":"13095"},"geometry":{"type":"Point","coordinates":[5.5202,43.5567]}},{"type":"Feature","properties":{"nom":"Saintes-Maries-de-la-Mer","code":"13096"},"geometry":{"type":"Point","coordinates":[4.4374,43.4958]}},{"type":"Feature","properties":{"nom":"Saint-Martin-de-Crau","code":"13097"},"geometry":{"type":"Point","coordinates":[4.8688,43.6074]}},{"type":"Feature","properties":{"nom":"Saint-Mitre-les-Remparts","code":"13098"},"geometry":{"type":"Point","coordinates":[5.0152,43.4565]}},{"type":"Feature","properties":{"nom":"Saint-Paul-lès-Durance","code":"13099"},"geometry":{"type":"Point","coordinates":[5.748,43.6869]}},{"type":"Feature","properties":{"nom":"Saint-Rémy-de-Provence","code":"13100"},"geometry":{"type":"Point","coordinates":[4.8455,43.7815]}},{"type":"Feature","properties":{"nom":"Saint-Savournin","code":"13101"},"geometry":{"type":"Point","coordinates":[5.5321,43.4025]}},{"type":"Feature","properties":{"nom":"Saint-Victoret","code":"13102"},"geometry":{"type":"Point","coordinates":[5.2508,43.4121]}},{"type":"Feature","properties":{"nom":"Salon-de-Provence","code":"13103"},"geometry":{"type":"Point","coordinates":[5.049,43.643]}},{"type":"Feature","properties":{"nom":"Sausset-les-Pins","code":"13104"},"geometry":{"type":"Point","coordinates":[5.1158,43.3469]}},{"type":"Feature","properties":{"nom":"Sénas","code":"13105"},"geometry":{"type":"Point","coordinates":[5.073,43.7402]}},{"type":"Feature","properties":{"nom":"Septèmes-les-Vallons","code":"13106"},"geometry":{"type":"Point","coordinates":[5.3828,43.3931]}},{"type":"Feature","properties":{"nom":"Simiane-Collongue","code":"13107"},"geometry":{"type":"Point","coordinates":[5.4359,43.4154]}},{"type":"Feature","properties":{"nom":"Tarascon","code":"13108"},"geometry":{"type":"Point","coordinates":[4.6852,43.7972]}},{"type":"Feature","properties":{"nom":"Le Tholonet","code":"13109"},"geometry":{"type":"Point","coordinates":[5.5053,43.5218]}},{"type":"Feature","properties":{"nom":"Trets","code":"13110"},"geometry":{"type":"Point","coordinates":[5.7137,43.4452]}},{"type":"Feature","properties":{"nom":"Vauvenargues","code":"13111"},"geometry":{"type":"Point","coordinates":[5.6207,43.5619]}},{"type":"Feature","properties":{"nom":"Velaux","code":"13112"},"geometry":{"type":"Point","coordinates":[5.246,43.5215]}},{"type":"Feature","properties":{"nom":"Venelles","code":"13113"},"geometry":{"type":"Point","coordinates":[5.4991,43.5951]}},{"type":"Feature","properties":{"nom":"Ventabren","code":"13114"},"geometry":{"type":"Point","coordinates":[5.3045,43.5446]}},{"type":"Feature","properties":{"nom":"Vernègues","code":"13115"},"geometry":{"type":"Point","coordinates":[5.1892,43.6841]}},{"type":"Feature","properties":{"nom":"Verquières","code":"13116"},"geometry":{"type":"Point","coordinates":[4.9192,43.8377]}},{"type":"Feature","properties":{"nom":"Vitrolles","code":"13117"},"geometry":{"type":"Point","coordinates":[5.2656,43.4509]}},{"type":"Feature","properties":{"nom":"Coudoux","code":"13118"},"geometry":{"type":"Point","coordinates":[5.2559,43.5587]}},{"type":"Feature","properties":{"nom":"Carnoux-en-Provence","code":"13119"},"geometry":{"type":"Point","coordinates":[5.5655,43.259]}},{"type":"Feature","properties":{"nom":"Les Adrets-de-l'Estérel","code":"83001"},"geometry":{"type":"Point","coordinates":[6.8177,43.5385]}},{"type":"Feature","properties":{"nom":"Aiguines","code":"83002"},"geometry":{"type":"Point","coordinates":[6.3197,43.7365]}},{"type":"Feature","properties":{"nom":"Ampus","code":"83003"},"geometry":{"type":"Point","coordinates":[6.3683,43.6218]}},{"type":"Feature","properties":{"nom":"Les Arcs","code":"83004"},"geometry":{"type":"Point","coordinates":[6.4862,43.4533]}},{"type":"Feature","properties":{"nom":"Artignosc-sur-Verdon","code":"83005"},"geometry":{"type":"Point","coordinates":[6.1087,43.6991]}},{"type":"Feature","properties":{"nom":"Artigues","code":"83006"},"geometry":{"type":"Point","coordinates":[5.8,43.5802]}},{"type":"Feature","properties":{"nom":"Aups","code":"83007"},"geometry":{"type":"Point","coordinates":[6.2139,43.6283]}},{"type":"Feature","properties":{"nom":"Bagnols-en-Forêt","code":"83008"},"geometry":{"type":"Point","coordinates":[6.7089,43.5328]}},{"type":"Feature","properties":{"nom":"Bandol","code":"83009"},"geometry":{"type":"Point","coordinates":[5.7488,43.147]}},{"type":"Feature","properties":{"nom":"Bargème","code":"83010"},"geometry":{"type":"Point","coordinates":[6.5697,43.7279]}},{"type":"Feature","properties":{"nom":"Bargemon","code":"83011"},"geometry":{"type":"Point","coordinates":[6.5439,43.6344]}},{"type":"Feature","properties":{"nom":"Barjols","code":"83012"},"geometry":{"type":"Point","coordinates":[5.973,43.5484]}},{"type":"Feature","properties":{"nom":"La Bastide","code":"83013"},"geometry":{"type":"Point","coordinates":[6.6327,43.7464]}},{"type":"Feature","properties":{"nom":"Baudinard-sur-Verdon","code":"83014"},"geometry":{"type":"Point","coordinates":[6.1351,43.714]}},{"type":"Feature","properties":{"nom":"Bauduen","code":"83015"},"geometry":{"type":"Point","coordinates":[6.2048,43.7203]}},{"type":"Feature","properties":{"nom":"Le Beausset","code":"83016"},"geometry":{"type":"Point","coordinates":[5.8239,43.205]}},{"type":"Feature","properties":{"nom":"Belgentier","code":"83017"},"geometry":{"type":"Point","coordinates":[5.9972,43.2416]}},{"type":"Feature","properties":{"nom":"Besse-sur-Issole","code":"83018"},"geometry":{"type":"Point","coordinates":[6.1839,43.339]}},{"type":"Feature","properties":{"nom":"Bormes-les-Mimosas","code":"83019"},"geometry":{"type":"Point","coordinates":[6.3615,43.1575]}},{"type":"Feature","properties":{"nom":"Le Bourguet","code":"83020"},"geometry":{"type":"Point","coordinates":[6.5017,43.7798]}},{"type":"Feature","properties":{"nom":"Bras","code":"83021"},"geometry":{"type":"Point","coordinates":[5.9558,43.4723]}},{"type":"Feature","properties":{"nom":"Brenon","code":"83022"},"geometry":{"type":"Point","coordinates":[6.5365,43.7691]}},{"type":"Feature","properties":{"nom":"Brignoles","code":"83023"},"geometry":{"type":"Point","coordinates":[6.0759,43.3878]}},{"type":"Feature","properties":{"nom":"Brue-Auriac","code":"83025"},"geometry":{"type":"Point","coordinates":[5.9402,43.5259]}},{"type":"Feature","properties":{"nom":"Cabasse","code":"83026"},"geometry":{"type":"Point","coordinates":[6.2303,43.4275]}},{"type":"Feature","properties":{"nom":"La Cadière-d'Azur","code":"83027"},"geometry":{"type":"Point","coordinates":[5.7231,43.2026]}},{"type":"Feature","properties":{"nom":"Callas","code":"83028"},"geometry":{"type":"Point","coordinates":[6.5735,43.5687]}},{"type":"Feature","properties":{"nom":"Callian","code":"83029"},"geometry":{"type":"Point","coordinates":[6.7601,43.6069]}},{"type":"Feature","properties":{"nom":"Camps-la-Source","code":"83030"},"geometry":{"type":"Point","coordinates":[6.1261,43.3719]}},{"type":"Feature","properties":{"nom":"Le Cannet-des-Maures","code":"83031"},"geometry":{"type":"Point","coordinates":[6.3703,43.3695]}},{"type":"Feature","properties":{"nom":"Carcès","code":"83032"},"geometry":{"type":"Point","coordinates":[6.1752,43.4738]}},{"type":"Feature","properties":{"nom":"Carnoules","code":"83033"},"geometry":{"type":"Point","coordinates":[6.1978,43.2921]}},{"type":"Feature","properties":{"nom":"Carqueiranne","code":"83034"},"geometry":{"type":"Point","coordinates":[6.0714,43.0975]}},{"type":"Feature","properties":{"nom":"Le Castellet","code":"83035"},"geometry":{"type":"Point","coordinates":[5.7561,43.2148]}},{"type":"Feature","properties":{"nom":"Cavalaire-sur-Mer","code":"83036"},"geometry":{"type":"Point","coordinates":[6.5215,43.1797]}},{"type":"Feature","properties":{"nom":"La Celle","code":"83037"},"geometry":{"type":"Point","coordinates":[6.0016,43.3843]}},{"type":"Feature","properties":{"nom":"Châteaudouble","code":"83038"},"geometry":{"type":"Point","coordinates":[6.442,43.6259]}},{"type":"Feature","properties":{"nom":"Châteauvert","code":"83039"},"geometry":{"type":"Point","coordinates":[6.0088,43.4992]}},{"type":"Feature","properties":{"nom":"Châteauvieux","code":"83040"},"geometry":{"type":"Point","coordinates":[6.5959,43.7874]}},{"type":"Feature","properties":{"nom":"Claviers","code":"83041"},"geometry":{"type":"Point","coordinates":[6.5845,43.5998]}},{"type":"Feature","properties":{"nom":"Cogolin","code":"83042"},"geometry":{"type":"Point","coordinates":[6.5319,43.2406]}},{"type":"Feature","properties":{"nom":"Collobrières","code":"83043"},"geometry":{"type":"Point","coordinates":[6.3454,43.2446]}},{"type":"Feature","properties":{"nom":"Comps-sur-Artuby","code":"83044"},"geometry":{"type":"Point","coordinates":[6.506,43.7075]}},{"type":"Feature","properties":{"nom":"Correns","code":"83045"},"geometry":{"type":"Point","coordinates":[6.0543,43.4884]}},{"type":"Feature","properties":{"nom":"Cotignac","code":"83046"},"geometry":{"type":"Point","coordinates":[6.1436,43.5246]}},{"type":"Feature","properties":{"nom":"La Crau","code":"83047"},"geometry":{"type":"Point","coordinates":[6.0923,43.1706]}},{"type":"Feature","properties":{"nom":"La Croix-Valmer","code":"83048"},"geometry":{"type":"Point","coordinates":[6.588,43.1909]}},{"type":"Feature","properties":{"nom":"Cuers","code":"83049"},"geometry":{"type":"Point","coordinates":[6.0654,43.2429]}},{"type":"Feature","properties":{"nom":"Draguignan","code":"83050"},"geometry":{"type":"Point","coordinates":[6.4651,43.5346]}},{"type":"Feature","properties":{"nom":"Entrecasteaux","code":"83051"},"geometry":{"type":"Point","coordinates":[6.2324,43.5085]}},{"type":"Feature","properties":{"nom":"Esparron","code":"83052"},"geometry":{"type":"Point","coordinates":[5.851,43.5881]}},{"type":"Feature","properties":{"nom":"Évenos","code":"83053"},"geometry":{"type":"Point","coordinates":[5.8702,43.1876]}},{"type":"Feature","properties":{"nom":"La Farlède","code":"83054"},"geometry":{"type":"Point","coordinates":[6.0414,43.164]}},{"type":"Feature","properties":{"nom":"Fayence","code":"83055"},"geometry":{"type":"Point","coordinates":[6.6762,43.6118]}},{"type":"Feature","properties":{"nom":"Figanières","code":"83056"},"geometry":{"type":"Point","coordinates":[6.4915,43.5642]}},{"type":"Feature","properties":{"nom":"Flassans-sur-Issole","code":"83057"},"geometry":{"type":"Point","coordinates":[6.2169,43.372]}},{"type":"Feature","properties":{"nom":"Flayosc","code":"83058"},"geometry":{"type":"Point","coordinates":[6.3577,43.5441]}},{"type":"Feature","properties":{"nom":"Forcalqueiret","code":"83059"},"geometry":{"type":"Point","coordinates":[6.0884,43.3357]}},{"type":"Feature","properties":{"nom":"Fox-Amphoux","code":"83060"},"geometry":{"type":"Point","coordinates":[6.1165,43.5944]}},{"type":"Feature","properties":{"nom":"Fréjus","code":"83061"},"geometry":{"type":"Point","coordinates":[6.7848,43.4553]}},{"type":"Feature","properties":{"nom":"La Garde","code":"83062"},"geometry":{"type":"Point","coordinates":[6.0162,43.129]}},{"type":"Feature","properties":{"nom":"La Garde-Freinet","code":"83063"},"geometry":{"type":"Point","coordinates":[6.4603,43.3251]}},{"type":"Feature","properties":{"nom":"Garéoult","code":"83064"},"geometry":{"type":"Point","coordinates":[6.0426,43.3397]}},{"type":"Feature","properties":{"nom":"Gassin","code":"83065"},"geometry":{"type":"Point","coordinates":[6.5876,43.2385]}},{"type":"Feature","properties":{"nom":"Ginasservis","code":"83066"},"geometry":{"type":"Point","coordinates":[5.8393,43.6566]}},{"type":"Feature","properties":{"nom":"Gonfaron","code":"83067"},"geometry":{"type":"Point","coordinates":[6.2978,43.3149]}},{"type":"Feature","properties":{"nom":"Grimaud","code":"83068"},"geometry":{"type":"Point","coordinates":[6.5097,43.2822]}},{"type":"Feature","properties":{"nom":"Hyères","code":"83069"},"geometry":{"type":"Point","coordinates":[6.2357,43.1139]}},{"type":"Feature","properties":{"nom":"Le Lavandou","code":"83070"},"geometry":{"type":"Point","coordinates":[6.4015,43.1669]}},{"type":"Feature","properties":{"nom":"La Londe-les-Maures","code":"83071"},"geometry":{"type":"Point","coordinates":[6.2417,43.1641]}},{"type":"Feature","properties":{"nom":"Lorgues","code":"83072"},"geometry":{"type":"Point","coordinates":[6.3588,43.4734]}},{"type":"Feature","properties":{"nom":"Le Luc","code":"83073"},"geometry":{"type":"Point","coordinates":[6.3107,43.3855]}},{"type":"Feature","properties":{"nom":"La Martre","code":"83074"},"geometry":{"type":"Point","coordinates":[6.5914,43.7631]}},{"type":"Feature","properties":{"nom":"Les Mayons","code":"83075"},"geometry":{"type":"Point","coordinates":[6.3621,43.3117]}},{"type":"Feature","properties":{"nom":"Mazaugues","code":"83076"},"geometry":{"type":"Point","coordinates":[5.8899,43.3435]}},{"type":"Feature","properties":{"nom":"Méounes-lès-Montrieux","code":"83077"},"geometry":{"type":"Point","coordinates":[5.979,43.2699]}},{"type":"Feature","properties":{"nom":"Moissac-Bellevue","code":"83078"},"geometry":{"type":"Point","coordinates":[6.1666,43.6487]}},{"type":"Feature","properties":{"nom":"La Môle","code":"83079"},"geometry":{"type":"Point","coordinates":[6.4835,43.2202]}},{"type":"Feature","properties":{"nom":"Mons","code":"83080"},"geometry":{"type":"Point","coordinates":[6.7054,43.7041]}},{"type":"Feature","properties":{"nom":"Montauroux","code":"83081"},"geometry":{"type":"Point","coordinates":[6.7993,43.5936]}},{"type":"Feature","properties":{"nom":"Montferrat","code":"83082"},"geometry":{"type":"Point","coordinates":[6.4774,43.6336]}},{"type":"Feature","properties":{"nom":"Montfort-sur-Argens","code":"83083"},"geometry":{"type":"Point","coordinates":[6.1252,43.486]}},{"type":"Feature","properties":{"nom":"Montmeyan","code":"83084"},"geometry":{"type":"Point","coordinates":[6.0652,43.6574]}},{"type":"Feature","properties":{"nom":"La Motte","code":"83085"},"geometry":{"type":"Point","coordinates":[6.5506,43.5091]}},{"type":"Feature","properties":{"nom":"Le Muy","code":"83086"},"geometry":{"type":"Point","coordinates":[6.5844,43.468]}},{"type":"Feature","properties":{"nom":"Nans-les-Pins","code":"83087"},"geometry":{"type":"Point","coordinates":[5.7874,43.3808]}},{"type":"Feature","properties":{"nom":"Néoules","code":"83088"},"geometry":{"type":"Point","coordinates":[6.0267,43.2912]}},{"type":"Feature","properties":{"nom":"Ollières","code":"83089"},"geometry":{"type":"Point","coordinates":[5.8141,43.5074]}},{"type":"Feature","properties":{"nom":"Ollioules","code":"83090"},"geometry":{"type":"Point","coordinates":[5.8515,43.1385]}},{"type":"Feature","properties":{"nom":"Pierrefeu-du-Var","code":"83091"},"geometry":{"type":"Point","coordinates":[6.1798,43.2351]}},{"type":"Feature","properties":{"nom":"Pignans","code":"83092"},"geometry":{"type":"Point","coordinates":[6.2625,43.2997]}},{"type":"Feature","properties":{"nom":"Plan-d'Aups-Sainte-Baume","code":"83093"},"geometry":{"type":"Point","coordinates":[5.7472,43.3336]}},{"type":"Feature","properties":{"nom":"Le Plan-de-la-Tour","code":"83094"},"geometry":{"type":"Point","coordinates":[6.5462,43.337]}},{"type":"Feature","properties":{"nom":"Pontevès","code":"83095"},"geometry":{"type":"Point","coordinates":[6.0687,43.5509]}},{"type":"Feature","properties":{"nom":"Pourcieux","code":"83096"},"geometry":{"type":"Point","coordinates":[5.7894,43.4626]}},{"type":"Feature","properties":{"nom":"Pourrières","code":"83097"},"geometry":{"type":"Point","coordinates":[5.7432,43.487]}},{"type":"Feature","properties":{"nom":"Le Pradet","code":"83098"},"geometry":{"type":"Point","coordinates":[6.0214,43.0984]}},{"type":"Feature","properties":{"nom":"Puget-sur-Argens","code":"83099"},"geometry":{"type":"Point","coordinates":[6.6861,43.4712]}},{"type":"Feature","properties":{"nom":"Puget-Ville","code":"83100"},"geometry":{"type":"Point","coordinates":[6.1646,43.2809]}},{"type":"Feature","properties":{"nom":"Ramatuelle","code":"83101"},"geometry":{"type":"Point","coordinates":[6.6449,43.2115]}},{"type":"Feature","properties":{"nom":"Régusse","code":"83102"},"geometry":{"type":"Point","coordinates":[6.122,43.663]}},{"type":"Feature","properties":{"nom":"Le Revest-les-Eaux","code":"83103"},"geometry":{"type":"Point","coordinates":[5.9453,43.1878]}},{"type":"Feature","properties":{"nom":"Rians","code":"83104"},"geometry":{"type":"Point","coordinates":[5.734,43.6026]}},{"type":"Feature","properties":{"nom":"Riboux","code":"83105"},"geometry":{"type":"Point","coordinates":[5.753,43.3063]}},{"type":"Feature","properties":{"nom":"Rocbaron","code":"83106"},"geometry":{"type":"Point","coordinates":[6.0869,43.3062]}},{"type":"Feature","properties":{"nom":"Roquebrune-sur-Argens","code":"83107"},"geometry":{"type":"Point","coordinates":[6.6525,43.4282]}},{"type":"Feature","properties":{"nom":"La Roquebrussanne","code":"83108"},"geometry":{"type":"Point","coordinates":[5.9787,43.3384]}},{"type":"Feature","properties":{"nom":"La Roque-Esclapon","code":"83109"},"geometry":{"type":"Point","coordinates":[6.6479,43.721]}},{"type":"Feature","properties":{"nom":"Rougiers","code":"83110"},"geometry":{"type":"Point","coordinates":[5.8505,43.3869]}},{"type":"Feature","properties":{"nom":"Sainte-Anastasie-sur-Issole","code":"83111"},"geometry":{"type":"Point","coordinates":[6.1227,43.3337]}},{"type":"Feature","properties":{"nom":"Saint-Cyr-sur-Mer","code":"83112"},"geometry":{"type":"Point","coordinates":[5.7055,43.17]}},{"type":"Feature","properties":{"nom":"Saint-Julien","code":"83113"},"geometry":{"type":"Point","coordinates":[5.9143,43.7045]}},{"type":"Feature","properties":{"nom":"Saint-Martin-de-Pallières","code":"83114"},"geometry":{"type":"Point","coordinates":[5.8869,43.577]}},{"type":"Feature","properties":{"nom":"Sainte-Maxime","code":"83115"},"geometry":{"type":"Point","coordinates":[6.6139,43.3584]}},{"type":"Feature","properties":{"nom":"Saint-Maximin-la-Sainte-Baume","code":"83116"},"geometry":{"type":"Point","coordinates":[5.8603,43.4488]}},{"type":"Feature","properties":{"nom":"Saint-Paul-en-Forêt","code":"83117"},"geometry":{"type":"Point","coordinates":[6.6822,43.5681]}},{"type":"Feature","properties":{"nom":"Saint-Raphaël","code":"83118"},"geometry":{"type":"Point","coordinates":[6.8483,43.4582]}},{"type":"Feature","properties":{"nom":"Saint-Tropez","code":"83119"},"geometry":{"type":"Point","coordinates":[6.6638,43.2619]}},{"type":"Feature","properties":{"nom":"Saint-Zacharie","code":"83120"},"geometry":{"type":"Point","coordinates":[5.7164,43.3749]}},{"type":"Feature","properties":{"nom":"Salernes","code":"83121"},"geometry":{"type":"Point","coordinates":[6.2379,43.5646]}},{"type":"Feature","properties":{"nom":"Les Salles-sur-Verdon","code":"83122"},"geometry":{"type":"Point","coordinates":[6.2042,43.767]}},{"type":"Feature","properties":{"nom":"Sanary-sur-Mer","code":"83123"},"geometry":{"type":"Point","coordinates":[5.7951,43.1374]}},{"type":"Feature","properties":{"nom":"Seillans","code":"83124"},"geometry":{"type":"Point","coordinates":[6.6024,43.6326]}},{"type":"Feature","properties":{"nom":"Seillons-Source-d'Argens","code":"83125"},"geometry":{"type":"Point","coordinates":[5.8775,43.5156]}},{"type":"Feature","properties":{"nom":"La Seyne-sur-Mer","code":"83126"},"geometry":{"type":"Point","coordinates":[5.8789,43.0837]}},{"type":"Feature","properties":{"nom":"Signes","code":"83127"},"geometry":{"type":"Point","coordinates":[5.8498,43.2759]}},{"type":"Feature","properties":{"nom":"Sillans-la-Cascade","code":"83128"},"geometry":{"type":"Point","coordinates":[6.1549,43.565]}},{"type":"Feature","properties":{"nom":"Six-Fours-les-Plages","code":"83129"},"geometry":{"type":"Point","coordinates":[5.8079,43.0843]}},{"type":"Feature","properties":{"nom":"Solliès-Pont","code":"83130"},"geometry":{"type":"Point","coordinates":[6.0625,43.1895]}},{"type":"Feature","properties":{"nom":"Solliès-Toucas","code":"83131"},"geometry":{"type":"Point","coordinates":[5.9836,43.2097]}},{"type":"Feature","properties":{"nom":"Solliès-Ville","code":"83132"},"geometry":{"type":"Point","coordinates":[6.0232,43.1804]}},{"type":"Feature","properties":{"nom":"Tanneron","code":"83133"},"geometry":{"type":"Point","coordinates":[6.8538,43.5732]}},{"type":"Feature","properties":{"nom":"Taradeau","code":"83134"},"geometry":{"type":"Point","coordinates":[6.4283,43.4657]}},{"type":"Feature","properties":{"nom":"Tavernes","code":"83135"},"geometry":{"type":"Point","coordinates":[6.0232,43.6009]}},{"type":"Feature","properties":{"nom":"Le Thoronet","code":"83136"},"geometry":{"type":"Point","coordinates":[6.2905,43.4585]}},{"type":"Feature","properties":{"nom":"Toulon","code":"83137"},"geometry":{"type":"Point","coordinates":[5.9334,43.1364]}},{"type":"Feature","properties":{"nom":"Tourrettes","code":"83138"},"geometry":{"type":"Point","coordinates":[6.7252,43.609]}},{"type":"Feature","properties":{"nom":"Tourtour","code":"83139"},